_id,name,cuisines,address,priceRange,timeOpen,average_score,classification,latitude,longitude
67812ec1514dba6089ed9109,Lẩu Bò Đồng Mỏ - Đường Láng,empty,"1 Ngõ 942 Đường Láng, P. Láng Thượng, Quận Đống Đa, Hà Nội",Đang cập nhật,09:00 - 20:30,10.0,Positive,21.022068875800127,105.80112948045303
67812ec1514dba6089ed9319,Tư Thanh - Bún Sườn Bò,Món Việt,"391 Huỳnh Văn Lũy, P. Phú Mỹ, Thành Phố Thủ Dầu Một, Bình Dương",18.000đ - 35.000đ,06:00 - 11:00,10.0,Positive,11.007415744425506,106.67632543488128
67812ec1514dba6089ed92e8,Trà Sữa Hoa Ly - Hoàng Hoa Thám,Món Việt,"29 Hoàng Hoa Thám, Tp. Vũng Tàu, Vũng Tàu",10.000đ - 20.000đ,08:00 - 22:00,10.0,Positive,10.338998704176655,107.0847514140628
67812ec1514dba6089ed92f3,Win Ăn Vặt - Bánh Tráng Trộn Long An & Cơm Cháy Chà Bông Mỡ Hành - 80 Bà Triệu,"Món Bắc, Món Miền Trung, Món Miền Nam, Tây Nguyên","80 Bà Triệu, P. 1, Tp. Vũng Tàu, Vũng Tàu",Đang cập nhật,09:00 - 22:00,10.0,Positive,10.35284713665611,107.07645145663528
67812ec1514dba6089ed92f4,Kim Yến Hoàng Gia - Yến Sào Thiên Nhiên & Yến Tươi Chưng Sẵn,Món Miền Nam,"442/9A Bình Giã, P. Nguyễn An Ninh, Tp. Vũng Tàu, Vũng Tàu",Đang cập nhật,09:00 - 22:00,10.0,Positive,,
67812ec1514dba6089ed9130,Cháo Thắng - Phùng Hưng,Món Việt,"71 Phùng Hưng, Quận Hoàn Kiếm, Hà Nội",25.000đ - 35.000đ,07:00 - 22:00,10.0,Positive,21.029536297190493,105.84459676353755
67812ec1514dba6089ed930c,Cháo Dinh Dưỡng Vina Soup - Cháo Dinh Dưỡng - Hoàng Hoa Thám,Món Việt,"48/87 Hoàng Hoa Thám, P. Hiệp Thành, Thành Phố Thủ Dầu Một, Bình Dương",Đang cập nhật,06:00 - 20:00,10.0,Positive,10.990097358781812,106.66522397920315
67812ec1514dba6089ed930e,MT. Food - Gà Ủ Muối Hoa Tiêu - Shop Online,empty,"1023/6/14 Lê Hồng Phong, KP. 4, P. Phú Thọ, Thành Phố Thủ Dầu Một, Bình Dương",100.000đ - 300.000đ,00:01 - 23:59,10.0,Positive,,
67812ec1514dba6089ed9334,Cháo Trắng Cháo Đậu Cần Thơ (A XO) - Cháo Ếch Kho Quẹt - Đường 30 tháng 4,Món Miền Nam,"12A 30 Tháng 4, P. An Phú, Quận Ninh Kiều, Cần Thơ",Đang cập nhật,Cả ngày,10.0,Positive,,
67812ec1514dba6089ed917a,Sườn Kingdom - Khu Đô Thị Văn Quán,empty,"Số 22, TT2B Khu Đô Thị Văn Quán, Quận Hà Đông, Hà Nội",100.000đ - 500.000đ,09:30 - 13:30 | 16:30 - 20:30,10.0,Positive,,
67812ec1514dba6089ed9132,Chill - Tiệm Trà Chanh - Tàm Xá,Tây Bắc,"16 Thôn Đông, Huyện Đông Anh, Hà Nội",15.000đ - 50.000đ,empty,10.0,Positive,21.14607287619474,105.81492136505695
67812ec1514dba6089ed91f3,Cháo Lòng Hà Lô - Cháo Lòng - Lạc Long Quân,"Món Bắc, Món Miền Trung, Món Miền Nam, Tây Nguyên","37 Ngõ 445 Lạc Long Quân, P. Xuân La, Quận Tây Hồ, Hà Nội",Đang cập nhật,06:00 - 13:00,10.0,Positive,21.05788408966761,105.80694159058086
67812ec1514dba6089ed9204,Phở Cồ - Phở Xào & Cơm Rang,Món Việt,"65 Tân Ấp, P. Phúc Xá, Quận Ba Đình, Hà Nội",25.000đ - 70.000đ,06:00 - 15:00 | 17:30 - 21:00,10.0,Positive,21.046853849926134,105.84634608060006
67812ec1514dba6089ed9372,Quán Cơm Sinh Viên - Trần Văn Đang,Món Việt,"47G Trần Văn Đang, P. 9, Quận 3, TP. HCM",6.000đ - 22.000đ,10:00 - 14:00,10.0,Positive,10.783560517127093,106.67469585918936
67812ec1514dba6089ed9373,Tiệm Xí Meo - Sandwich Và Burger,"Món Âu, Món Hàn","951 Hoàng Sa, Quận 3, TP. HCM",Đang cập nhật,06:00 - 15:00,10.0,Positive,10.784604633633721,106.67699877933565
67812ec1514dba6089ed9375,Bún Quậy Tâm Quán - Hậu Giang,Món Miền Nam,"162B Hậu Giang, P. 6, Quận 6, TP. HCM",35.000đ - 55.000đ,07:00 - 13:30 | 15:30 - 22:00,10.0,Positive,10.747209048558796,106.63165289034124
67812ec1514dba6089ed92e7,"Quạo - Mì, Cơm Trộn Trứng Chảy, Bún Trộn, Ăn Vặt, Giải Khát",Món Việt,"21-C6 Trần Bình Trọng, P. Nguyễn An Ninh, Tp. Vũng Tàu, Vũng Tàu",Đang cập nhật,09:00 - 21:00,10.0,Positive,10.359061649889249,107.09662822292469
67812ec1514dba6089ed9183,Chè Ngon Nhà Làm & Đồ Ăn Vặt,empty,"34B Phố Cầu Am (Làng Vạn Phúc), P. Vạn Phúc, Quận Hà Đông, Hà Nội",15.000đ - 30.000đ,10:00 - 19:00,10.0,Positive,,
67812ec1514dba6089ed91fa,Chicken & Friez,Món Á,"34 TT4 KĐT Mỹ Đình Sông Đà, P. Mỹ Đình 1, Quận Nam Từ Liêm, Hà Nội",100.000đ - 330.000đ,09:00 - 23:00,10.0,Positive,,
67812ec1514dba6089ed92cd,Thuỷ Juice Healthy - Nước Ép Nguyên Chất & Sinh Tố - Trần Đại Nghĩa,empty,"130 Trần Đại Nghĩa, P. Đồng Tâm, Quận Hai Bà Trưng, Hà Nội",Đang cập nhật,10:00 - 23:59,10.0,Positive,21.003540093871848,105.84477841161964
67812ec1514dba6089ed91fd,Jun's Kitchen - Cơm Hàn Quốc & Đồ Ăn Hàn Quốc - Trung Hòa,empty,"Số 17 Ngõ 20 Nguyễn Chánh, P. Trung Hòa, Quận Cầu Giấy, Hà Nội",30.000đ - 70.000đ,11:00 - 14:00 | 17:00 - 19:30,10.0,Positive,21.00923434808029,105.7957413461354
67812ec1514dba6089ed92c4,MÌ CAY 25K - CHÂN GÀ SỐT THÁI - 200 LÊ THANH NGHỊ,empty,"200 Lê Thanh Nghị, P. Bách Khoa, Quận Hai Bà Trưng, Hà Nội",20.000đ - 50.000đ,00:01 - 23:59,10.0,Positive,21.001315400000003,105.84715514999999
67812ec1514dba6089ed9186,Ship Đồ Ăn Nhanh 24H - Shop Online,Món Việt,"16A Thụy Khuê, P. Thuỵ Khuê, Quận Tây Hồ, Hà Nội",15.000đ - 60.000đ,00:01 - 23:59,10.0,Positive,21.040972069446617,105.82629986744806
67812ec1514dba6089ed927f,Bánh Tráng Huy Quân - Trần Huy Liệu,Món Việt,"101 C5 Trần Huy Liệu, P. Giảng Võ, Quận Ba Đình, Hà Nội",10.000đ - 25.000đ,11:00 - 21:00,10.0,Positive,,
67812ec1514dba6089ed9279,"Woa Tea - Trà Sữa, Ăn Vặt & Mỳ Trộn - 72 Nguyễn Trãi",Món Miền Nam,"64/2 Nghách 1 Ngõ 72 Nguyễn Trãi, P. Nhân Chính, Quận Thanh Xuân, Hà Nội",Đang cập nhật,16:00 - 23:00,10.0,Positive,,
67812ec1514dba6089ed9276,Bún Chả Nam Hà - Linh Đàm,Món Bắc,"HH1B Linh Đàm, P. Hoàng Liệt, Quận Hoàng Mai, Hà Nội",Đang cập nhật,06:00 - 15:00,10.0,Positive,20.96450085,105.82614109646705
67812ec1514dba6089ed9272,Bún Bò Huế Nam Minh - Vĩnh Hưng,empty,"Số 7 Ngõ 431 Vĩnh Hưng, Quận Hai Bà Trưng, Hà Nội",30.000đ - 50.000đ,06:10 - 16:45 | 17:00 - 20:45,10.0,Positive,,
67812ec1514dba6089ed9271,Cơm Tấm Sườn Cây & Cơm Gà Ta - Hai Phúc - 26 Hàng Chuối,empty,"26 Hàng Chuối, P. Phạm Đình Hồ, Quận Hai Bà Trưng, Hà Nội",30.000đ - 50.000đ,10:30 - 14:30,10.0,Positive,21.017605591414583,105.85705505800696
67812ec1514dba6089ed924c,Liuni Tea - 5A Tống Duy Tân,empty,"5A Tống Duy Tân, P. Hàng Bông, Quận Hoàn Kiếm, Hà Nội",Đang cập nhật,10:00 - 23:59,10.0,Positive,21.029429423482686,105.84377207119584
67812ec1514dba6089ed9125,"Bún Đậu Mắm Tôm, Bún Đậu & Mỳ Cay - Anh Đức",empty,"595/21 Lĩnh Nam, P. Lĩnh Nam, Quận Hoàng Mai, Hà Nội",Đang cập nhật,08:00 - 14:00,10.0,Positive,20.980221450000002,105.88593954999999
67812ec1514dba6089ed9127,Bún Dọc Mùng - Mai Hắc Đế,Hà Nội,"145 Mai Hắc Đế, P. Lê Đại Hành, Quận Hai Bà Trưng, Hà Nội",25.000đ - 35.000đ,06:00 - 14:00,10.0,Positive,21.01299439342082,105.85102987420777
67812ec1514dba6089ed918a,"Quán Nhà Kẹo - Mì Indomie, Mì Trộn & Đồ Ăn Vặt - 18 Ngõ 575 Kim Mã",empty,"Nhà 1A Ngách 18/575 Kim Mã, P. Kim Mã, Quận Ba Đình, Hà Nội",10.000đ - 85.000đ,06:00 - 23:59,10.0,Positive,,
67812ec1514dba6089ed9209,Cô Ba - Nem Nướng Nha Trang - Lê Văn Lương,Món Việt,"Nhà N5A, Ngõ 48 Lê Văn Lương, P. Trung Hòa, Quận Cầu Giấy, Hà Nội",10.000đ - 30.000đ,09:00 - 21:30,10.0,Positive,,
67812ec1514dba6089ed90fe,Pizza FF - 187 Đội Cấn,empty,"187 Đội Cấn, P. Đội Cấn, Quận Ba Đình, Hà Nội",5.000đ - 999.000đ,09:00 - 22:00,10.0,Positive,21.034580062524178,105.82943206355634
67812ec1514dba6089ed9208,Trà Sữa Mixue - Lương Định Của,empty,"10C2 Mặt Đường Lương Định Của, Quận Đống Đa, Hà Nội",20.000đ - 30.000đ,09:00 - 22:00,10.0,Positive,,
67812ec1514dba6089ed90fb,Xã Gà - Cơm Gà & Gà Nướng Lu,Món Việt,"19 Nguyên Hồng, P. Láng Thượng, Quận Đống Đa, Hà Nội",40.000đ - 60.000đ,07:00 - 22:00,10.0,Positive,,
67812ec1514dba6089ed93d5,Quán Chay Sala - Quận 7,empty,"30/31/24/28 Lâm Văn Bền, P. Tân Kiểng, Quận 7, TP. HCM",50.000đ - 150.000đ,08:00 - 21:00,10.0,Positive,,
67812ec1514dba6089ed948c,Bánh Khọt Long - Hoàng Hoa Thám,empty,"99 Đ. Hoàng Hoa Thám, P. Thắng Tam, Tp. Vũng Tàu, Vũng Tàu",20.000đ - 1.000.000đ,07:00 - 09:00,10.0,Positive,10.338998704176655,107.0847514140628
67812ec1514dba6089ed947d,Cơm Niêu & Lẩu Cá Đuối Vũng Tàu - 42 Hoàng Hoa Thám,empty,"42 Hoàng Hoa Thám, P. 2, Tp. Vũng Tàu, Vũng Tàu",Đang cập nhật,07:00 - 21:00,10.0,Positive,10.338998704176655,107.0847514140628
67812ec1514dba6089ed90dd,Chân Gà Sốt Thái Yến Nhi 789,empty,"36 Cầu Diễn, P.Phúc Diễn, Quận Bắc Từ Liêm, Hà Nội",Đang cập nhật,00:00 - 21:00 | 11:00 - 23:59,10.0,Positive,21.0415609,105.76143245
67812ec1514dba6089ed91c7,Hiền Xinh - Thịt Xiên Nướng,Món Việt,"53 Linh Lang (Cổng Chợ Linh Lang), P. Cống Vị, Quận Ba Đình, Hà Nội",10.000đ - 50.000đ,07:00 - 22:30,10.0,Positive,,
67812ec1514dba6089ed944f,Gardenia Kitchen - 32 Hai Bà Trưng,empty,"32 Hai Bà Trưng, P. Vĩnh Ninh, Tp. Huế, Huế",13.000đ - 25.000đ,06:30 - 17:00,10.0,Positive,16.46273097034744,107.58848147674708
67812ec1514dba6089ed9441,Cơm Tấm Bến Tre - Đường Số 1,empty,"295 Đường Số 1, P. Bình Trị Động B, Quận Bình Tân, TP. HCM",32.000đ - 54.000đ,06:00 - 14:00,10.0,Positive,10.74777785,106.61157275
67812ec1514dba6089ed9434,Mì Cay & Mì Tương Đen A Woong - Ngô Gia Tự,empty,"008 Lô R CC Ngô Gia Tự Đường Hòa Hảo, P. 2, Quận 10, TP. HCM",20.000đ - 70.000đ,11:00 - 22:00,10.0,Positive,,
67812ec1514dba6089ed9413,Quán Ăn Gia Đình 33 - Đề Thám,Món Việt,"33 Đề Thám, P. Cô Giang, Quận 1, TP. HCM",49.000đ - 199.000đ,12:00 - 23:00,10.0,Positive,10.762992449525079,106.69605000298247
67812ec1514dba6089ed940b,2 Mập - Trà Sữa & Ăn Vặt,Món Việt,"1 Bùi Tư Toàn, P. An Lạc (Đối Diện Hẻm 36 Bùi Tư Toàn), Quận Bình Tân, TP. HCM",5.000đ - 25.000đ,10:00 - 22:00,10.0,Positive,,
67812ec1514dba6089ed9406,Nhóc Nhoi - Yaourt & Trà Sen Vàng,empty,"58/51/30 Phan Chu Trinh, P. 24, Quận Bình Thạnh, TP. HCM",10.000đ - 500.000đ,09:00 - 22:00,10.0,Positive,,
67812ec1514dba6089ed9405,Cơm Tấm Phúc Lộc Thọ - Xô Viết Nghệ Tĩnh,empty,"304-306 Xô Viết Nghệ Tĩnh, P. 21, Quận Bình Thạnh, TP. HCM",32.000đ - 139.000đ,07:00 - 21:00,10.0,Positive,,
67812ec1514dba6089ed9163,Bánh Đa Trộn & Miến Trộn - Đê La Thành,Món Việt,"3 Ngõ 241 Đê La Thành, P. Ô Chợ Dừa, Quận Đống Đa, Hà Nội",30.000đ - 40.000đ,07:00 - 14:30,10.0,Positive,,
67812ec1514dba6089ed93e7,NHÀ HÀNG HƯƠNG LÚA 8 - Lẩu & Nướng - Nguyễn Hữu Thọ,"Món Bắc, Đặc biệt, Món Miền Trung, Món Miền Nam","2 Nguyễn Hữu Thọ, P. Tân Hưng, Quận 7, TP. HCM",50.000đ - 500.000đ,10:00 - 22:00,10.0,Positive,10.739417694808527,106.70079561517353
67812ec1514dba6089ed93e2,Cơm Thố Tiến Phát - Nguyễn Thái Bình,empty,"367 Nguyễn Thái Bình, P. 12, Quận Tân Bình, TP. HCM",10.000đ - 100.000đ,09:00 - 22:30,10.0,Positive,10.796593427888238,106.65341971979197
67812ec1514dba6089ed915b,Siêu Thị Mực Khô - Shop Online,Món Việt,"125 Đại An, P. Văn Quán, Quận Hà Đông, Hà Nội",100.000đ - 300.000đ,09:00 - 21:00,10.0,Positive,,
67812ec1514dba6089ed93ca,Quán 45A - Bún Mắm,Món Việt,"45A Nguyễn Nhữ Lãm, P. Phú Thọ Hòa, Quận Tân Phú, TP. HCM",12.000đ - 45.000đ,16:30 - 23:59,10.0,Positive,10.78380912326618,106.62663107414541
67812ec1514dba6089ed91e6,Teen Food - Nem Chua Rán Chị Hạnh - Núi Trúc,empty,"23 Núi Trúc, P. Kim Mã, Quận Ba Đình, Hà Nội",7.000đ - 120.000đ,08:00 - 22:00,10.0,Positive,21.030248659118367,105.82483211084923
67812ec1514dba6089ed9172,NAM HOA CÀ PHÊ & TRÀ SỮA,Món Bắc,"Số 6 Sunrise C Themanor Centr Park Nguyễn Xiển, P. Đại Kim, Quận Hoàng Mai, Hà Nội",Đang cập nhật,08:00 - 23:59,10.0,Positive,,
67812ec1514dba6089ed9389,Quang Tiến - Hột Gà Nướng & Cá Viên Chiên - Lê Văn Sỹ,empty,"475 Lê Văn Sỹ, P. 2, Quận Tân Bình, TP. HCM",7.000đ - 30.000đ,13:00 - 23:59,10.0,Positive,10.798144926467529,106.6630707824489
67812ec1514dba6089ed93d0,Ngân - Bún Riêu Ốc & Canh Bún,"Món Bắc, Món Miền Nam","A13/20 Quốc Lộ 50, X. Bình Hưng, Huyện Bình Chánh, TP. HCM",Đang cập nhật,07:00 - 22:00,10.0,Positive,,
67812ec1514dba6089ed93ac,HỦ TIẾU MỰC ÔNG GIÀ CALI - Thoại Ngọc Hầu,empty,"2 Thoại Ngọc Hầu, P. Hòa Thạnh, Quận Tân Phú, TP. HCM",Đang cập nhật,07:00 - 22:00,10.0,Positive,10.7858645,106.64133
67812ec1514dba6089ed93b0,An Chay Quán - Cơm Chay & Lẩu Chay - Nguyễn Xiển,empty,"581 Nguyễn Xiển, P. Long Thạnh Mỹ, Tp. Thủ Đức, TP. HCM",30.000đ - 70.000đ,06:00 - 21:00,10.0,Positive,10.853224223251186,106.8336257369504
67812ec1514dba6089ed9202,Tiệm Xôi Bà Hiền Béo - Mì Trộn Indomie & Bún Trộn,empty,"7A Thanh Hà, P. Đồng Xuân, Quận Hoàn Kiếm, Hà Nội",Đang cập nhật,00:01 - 00:30 | 18:00 - 23:59,9.98,Positive,21.037783351773317,105.85152932054011
67812ec1514dba6089ed91e0,Phở Xào & Cơm Rang - Quỳnh Mai,empty,"16 Quỳnh Mai, P. Quỳnh Mai, Quận Hai Bà Trưng, Hà Nội",35.000đ - 50.000đ,06:00 - 21:00,9.98,Positive,21.000780796226714,105.86061255583665
67812ec1514dba6089ed919b,"H&T Food - Mì Trộn Indomie, Chân Gà Sả Tắc & Ăn Vặt",empty,"Số 3,Hẻm 162/130/19 Đường Khương Trung, P. Khương Trung, Quận Thanh Xuân, Hà Nội",Đang cập nhật,00:01 - 23:59,9.96,Positive,,
67812ec1514dba6089ed9322,"Bật Bếp Lên - Mỳ Ý, Gà Rán & Cơm Kẹp",empty,"842/14 Tô Vĩnh Diện, P. Đông Hòa, Thị Xã Dĩ An, Bình Dương",Đang cập nhật,08:00 - 23:00,9.96,Positive,,
67812ec1514dba6089ed937f,Bánh Cuốn Nóng 431 - Hậu Giang,empty,"441B Hậu Giang, P. 11, Quận 6, TP. HCM",Đang cập nhật,07:00 - 22:00,9.942692307692308,Positive,10.748129853095671,106.63551429826393
67812ec1514dba6089ed938f,Quán Cơm Tấm Ngon Ngon - Phạm Hùng,empty,"C8/1C Phạm Hùng, X. Bình Hưng, Huyện Bình Chánh, TP. HCM",25.000đ - 40.000đ,09:00 - 21:00,9.932692307692308,Positive,,
67812ec1514dba6089ed92a7,Phở Gánh - 252 Lương Thế Vinh,Món Việt,"252 Lương Thế Vinh, P. Trung Văn, Quận Nam Từ Liêm, Hà Nội",35.000đ - 45.000đ,07:00 - 14:30 | 18:00 - 22:30,9.92,Positive,20.9968457,105.7880804
67812ec1514dba6089ed92ce,Thuỷ Juice Healthy - Nước Ép Nguyên Chất & Sinh Tố,Món Việt,"12 Ngách 15 Ngõ 267 Phùng Khoang, P. Trung Văn, Quận Nam Từ Liêm, Hà Nội",Đang cập nhật,09:00 - 22:00,9.92,Positive,,
67812ec1514dba6089ed916b,Bánh Mì Dân Tổ Hà Nội - Lương Ngọc Quyến,Món Việt,"3B Ngõ 22 Lương Ngọc Quyến, P. Hàng Buồm, Quận Hoàn Kiếm, Hà Nội",60.000đ - 32.000đ,06:00 - 23:00,9.9,Positive,21.034946699854395,105.8527054514061
67812ec1514dba6089ed9424,"Việt Thành Bakery - Bánh Kem Sữa, Kem Bắp Và Các Loại Bánh Mì",empty,"744-746 Tân Kỳ Tân Quý, P. Bình Hưng Hoà A, Quận Bình Tân, TP. HCM",20.000đ - 100.000đ,06:00 - 22:00,9.89,Positive,10.787822802144904,106.59804719595978
67812ec1514dba6089ed90f0,Anh Food - Đồ Ăn Vặt & Đồ Uống - Đường Láng,empty,"Số 17B Ngách 594/2, Ngõ 594 Đường Láng, P. Láng Hạ, Quận Đống Đa, Hà Nội",10.000đ - 100.000đ,09:00 - 22:00,9.88,Positive,,
67812ec1514dba6089ed946c,Mr Viet - Coffee & Fastfood,empty,"29 Bùi Xuân Phái, P. Thủy Dương, Tp. Huế, Huế",10.000đ - 25.000đ,06:30 - 22:30,9.865384615384617,Positive,,
67812ec1514dba6089ed9384,Bún Thịt Nướng Cô Tư,empty,"50 Nguyễn Văn Nghi, P. 5, Quận Gò Vấp, TP. HCM",15.000đ - 40.000đ,07:00 - 21:00,9.865384615384617,Positive,10.8233327,106.68796265
67812ec1514dba6089ed914f,The Heartmades - Chè Khúc Bạch Online,Món Việt,"112 Ngô Gia Tự, P. Đức Giang, Quận Long Biên, Hà Nội",25.000đ - 50.000đ,10:00 - 20:00,9.86,Positive,21.0686782,105.9076124
67812ec1514dba6089ed9190,Cơm Ngon Giang Béo - Lê Đức Thọ,empty,"41 Ngách 63/5/36 Ngõ 35 Lê Đức Thọ, P. Mỹ Đình 2, Quận Nam Từ Liêm, Hà Nội",30.000đ - 45.000đ,10:00 - 22:00,9.84,Positive,,
67812ec1514dba6089ed934f,Bò Mỹ 3 Ngon,Món Việt,"304 Thống Nhất, P. 16, Quận Gò Vấp, TP. HCM",45.000đ - 350.000đ,07:30 - 23:30,9.823846153846157,Positive,10.841696529998329,106.6648068357033
67812ec1514dba6089ed9377,Shiba Sushi - Phan Xích Long,empty,"281 Phan Xích Long, P. 2, Quận Phú Nhuận, TP. HCM",20.000đ - 200.000đ,10:00 - 22:00,9.8175,Positive,10.798084289455355,106.68864616868669
67812ec1514dba6089ed9299,THAIYEN CAFE - CAFEYEN - Quán Thánh,Món Việt,"180 Quán Thánh, P. Quán Thánh, Quận Ba Đình, Hà Nội",20.000đ - 100.000đ,07:00 - 15:30,9.8,Positive,21.0431524,105.83927128130193
67812ec1514dba6089ed9117,Bếp Nhà Bun - Chân Gà Sả Ớt Online - Văn Quán,Món Việt,"36 Ngõ 115 Chiên Thắng, P. Văn Quán, Quận Hà Đông, Hà Nội",30.000đ - 100.000đ,06:00 - 22:00,9.8,Positive,20.981478307711082,105.79508193895407
67812ec1514dba6089ed92cf,Cơm Chiên Giòn - Long Bốn - Hoàng Hoa Thám,Món Việt,"K86/20 Hoàng Hoa Thám, P. Tân Chính, Quận Thanh Khê, Đà Nẵng",20.000đ - 30.000đ,10:00 - 14:00 | 16:00 - 21:00,9.73076923076923,Positive,,
67812ec1514dba6089ed92d6,Chuk Express Trà & Cà Phê – 132 Ngô Quyền,empty,"132 Ngô Quyền, P. 5, Quận 10, TP. HCM",15.000đ - 40.000đ,07:30 - 21:45,9.73076923076923,Positive,10.757837792667546,106.66590765950802
67812ec1514dba6089ed91ed,Chang Hi - Chè Thốt Nốt Dừa Dầm Ngon Nhất Hà Nội Online - Nguyễn Văn Lộc,empty,"112 Nguyễn Văn Lộc - Làng Việt Kiều Châu Âu, P. Mộ Lao, Quận Hà Đông, Hà Nội",30.000đ - 40.000đ,09:00 - 23:00,9.7,Positive,,
67812ec1514dba6089ed919f,So Cuốn - Hàng Chuối,Món Việt,"13ABC Ngõ 13 Hàng Chuối, P. Phạm Đình Hổ, Quận Hai Bà Trưng, Hà Nội",20.000đ - 100.000đ,15:00 - 20:00,9.68,Positive,,
67812ec1514dba6089ed91ac,A Điêu - Nem Chua Nướng Thơm Lừng,Món Việt,"65 Chương Dương Độ, P. Chương Dương, Quận Hoàn Kiếm, Hà Nội",30.000đ - 134.000đ,09:00 - 23:59,9.66,Positive,21.030349499640813,105.86103025011008
67812ec1514dba6089ed90d9,Trà Sữa Te Amo - Hồ Đắc Di,empty,"11 Ngõ 135 Hồ Đắc Di, P. Nam Đồng, Quận Đống Đa, Hà Nội",24.000đ - 24.000đ,09:00 - 22:00,9.62,Positive,,
67812ec1514dba6089ed9242,Bún Chả Hàng Than - Món Ngon Chuẩn Vị Phố Cổ - Geleximco,"Món Bắc, Đặc sản vùng","34 Lô A12 Geleximco Khu A, Đường Lê Trọng Tấn, X. An Khánh, Huyện Hoài Đức, Hà Nội",Đang cập nhật,08:00 - 20:00,9.6,Positive,,
67812ec1514dba6089ed92c5,"Cafe Hội - Cafe, Trà Sữa Ô Long Đậm Vị & Trà Hoa Quả - Trưng Trắc",empty,"Số 7 Trưng Trắc, P. Nguyễn Trãi, Quận Hà Đông, Hà Nội",Đang cập nhật,09:00 - 22:00,9.596153846153848,Positive,,
67812ec1514dba6089ed9300,Hương Đồng 3 - Quán Ăn Gia Đình,Món Việt,"Bờ Bao Sông Sài Gòn, P. Lái Thiêu, Thị Xã Thuận An, Bình Dương",10.000đ - 200.000đ,10:00 - 23:00,9.596153846153848,Positive,,
67812ec1514dba6089ed9316,Trà Sữa Cocony,Món Việt,"ĐT 746, Tân Vĩnh Hiệp, Thị Xã Tân Uyên, Bình Dương",20.000đ - 50.000đ,09:00 - 22:00,9.596153846153848,Positive,11.020862810797029,106.71885980229082
67812ec1514dba6089ed9358,Bánh Mì Cô Thắm - Bánh Mì & Bánh Bông Lan - Linh Trung,"Món Miền Trung, Món Miền Nam","16 Linh Trung, P. Linh Trung, Tp. Thủ Đức, TP. HCM",Đang cập nhật,06:00 - 10:00,9.596153846153848,Positive,10.86017189098946,106.7748929161361
67812ec1514dba6089ed93d1,Bún Bò Huế Gia Hội - Đường Số 23,Món Huế,"81 Đường Số 23, P. Tân Quy, Quận 7, TP. HCM",30.000đ - 260.000đ,06:00 - 12:00 | 16:00 - 21:00,9.596153846153848,Positive,10.74389941034014,106.7094497999782
67812ec1514dba6089ed90e2,Gà 68 - Shop Online - Thanh Trì,Món Việt,"1 Ngách 19 Ngõ 72 Tựu Liệt, Huyện Thanh Trì, Hà Nội",50.000đ - 200.000đ,09:00 - 22:00,9.56,Positive,,
67812ec1514dba6089ed9335,Trộn House - Bánh Tráng Trộn,Món Việt,"162 Nguyễn Việt Hồng, P. Xuân Khánh, Quận Ninh Kiều, Cần Thơ",20.000đ - 20.000đ,15:00 - 22:00,9.542307692307691,Positive,,
67812ec1514dba6089ed92df,Món Huy Mê - Bò Beefsteak & Súp Cua,empty,"31 Ngô Gia Tự, P. 2, Quận 10, TP. HCM",30.000đ - 100.000đ,10:00 - 22:00,9.528846153846152,Positive,10.761286700539136,106.66993562175146
67812ec1514dba6089ed9456,Hải Sản 66 - Nguyễn Chí Diểu,Món Việt,"69 Nguyễn Chí Diểu, P. Thuận Thành, Tp. Huế, Huế",30.000đ - 70.000đ,16:00 - 23:00,9.528846153846152,Positive,16.474327006110812,107.58220369657626
67812ec1514dba6089ed9449,Nasasu - Bánh Su Kem Siêu Ngon,Món Việt,"340 Nguyễn Trọng Tuyển, P. 2, Quận Tân Bình, TP. HCM",15.000đ - 600.000đ,09:00 - 19:00,9.523653846153843,Positive,10.798631538967982,106.66108915228337
67812ec1514dba6089ed91f4,Cơm Ngon Mẹ Nấu - Trần Phú,empty,"32 Ngõ 131 Trần Phú, P. Văn Quán, Quận Hà Đông, Hà Nội",30.000đ - 40.000đ,10:00 - 22:00,9.5,Positive,,
67812ec1514dba6089ed934e,"Khô Mực, Cá Viên Chiên & Trứng Vịt Lộn - Tomly Tiến",empty,"383 Nguyễn Chí Thanh, P. 12, Quận 5, TP. HCM",5.000đ - 40.000đ,00:01 - 02:00 | 18:00 - 23:59,9.5,Positive,10.7566547,106.653361
67812ec1514dba6089ed915a,Bún Bò Huế Nam Minh - Thành Công,empty,"115A4 Thành Công, P. Thành Công, Quận Ba Đình, Hà Nội",5.000đ - 360.000đ,06:15 - 20:30,9.48,Positive,21.02006498587371,105.81610234616028
67812ec1514dba6089ed93f4,Crystal Jade Kitchen - AEON Mall Bình Tân - Nhà Hàng Quảng Đông,Món Trung Hoa,"Tầng 3, Lầu 3, Aeon Mall Bình Tân, 532A Kinh Dương Vương, P. Bình Trị Đông, Quận Bình Tân, TP. HCM",100.000đ - 200.000đ,10:00 - 22:00,9.477884615384614,Positive,,
67812ec1514dba6089ed9386,Một Góc Nhà - Mì Quảng & Món Cuốn,Món Miền Trung,"439-441 Bạch Đằng, P. 2, Quận Bình Thạnh, TP. HCM",49.000đ - 149.000đ,06:30 - 14:00 | 16:00 - 21:30,9.46153846153846,Positive,10.803061249999999,106.7084272
67812ec1514dba6089ed93d8,Lẩu Chay THA LA - Ẩm Thực Chay - 51 Trần Quốc Toản,Món Miền Nam,"51 Trần Quốc Toản, P. Võ Thị Sáu, Quận 3, TP. HCM",Đang cập nhật,10:00 - 22:00,9.46153846153846,Positive,10.78967775,106.68944454999999
67812ec1514dba6089ed9131,Phở Hào - Nguyên Hồng,Món Việt,"1 Ngõ 73 Nguyên Hồng, Quận Đống Đa, Hà Nội",30.000đ - 35.000đ,07:00 - 22:00,9.46,Positive,21.015691156300175,105.81043186367953
67812ec1514dba6089ed911c,Joy House - Steak - Trung Hòa,"Món Việt, Món Nhật, Ý","72 Trung Hòa, P. Trung Hoà, Quận Cầu Giấy, Hà Nội",Đang cập nhật,09:00 - 21:00,9.46,Positive,21.015373349999997,105.80120886571886
67812ec1514dba6089ed92eb,Gangnam Street Food,Món Việt,"9 Hạ Long, P. 2, Tp. Vũng Tàu, Vũng Tàu",20.000đ - 65.000đ,10:00 - 21:00,9.424615384615384,Positive,10.328744783840776,107.07867125030765
67812ec1514dba6089ed91e2,Trà Sữa Mixue - Ao Sen,Món Á,"1A Ngõ 3 Ao Sen, P. Mộ Lao, Quận Hà Đông, Hà Nội",15.000đ - 25.000đ,09:00 - 22:00,9.42,Positive,20.981645399999998,105.78816325
67812ec1514dba6089ed937b,Sữa Chua Dẻo Xắt Miếng - Chung Cư Topaz - Shop Online,Món Việt,"A2 Chung Cư Topaz City, 39 Cao Lỗ, P. 4, Quận 8, TP. HCM",5.000đ - 30.000đ,08:00 - 22:00,9.42,Positive,,
67812ec1514dba6089ed9234,Goceacafe & Bistro,empty,"27 Nguyễn Thái Học, P. Cửa Nam, Quận Hoàn Kiếm, Hà Nội",Đang cập nhật,07:00 - 23:00,9.4,Positive,21.0285131,105.8423837
67812ec1514dba6089ed9179,Giò Chả Đức Bình,Món Việt,"483 Ngõ 192 Lê Trọng Tấn, P. Định Công, Quận Hoàng Mai, Hà Nội",50.000đ - 350.000đ,06:00 - 13:00 | 15:00 - 20:00,9.4,Positive,20.989584846196134,105.82730451091996
67812ec1514dba6089ed92e5,Vựa Hải Sản Thu Tiến,Món Việt,"Khu Chợ Đêm Vũng Tàu, P. Thắng Tam, Tp. Vũng Tàu, Vũng Tàu",50.000đ - 3.000.000đ,00:01 - 02:00 | 15:00 - 23:59,9.39423076923077,Positive,,
67812ec1514dba6089ed93f1,Cơm Gà - G-Land Đồ Ăn Vặt - Bình Thành,Món Việt,"328 Bình Thành, P. Bình Hưng Hoà B, Quận Bình Tân, TP. HCM",8.000đ - 35.000đ,06:00 - 23:59,9.326923076923077,Positive,10.817731549694164,106.58833313249102
67812ec1514dba6089ed92ba,Ốc Nguyễn Thanh - Chuyên Ốc Dừa Rang Muối,Món Việt,"184/34 Lê Đình Cẩn, P. Tân Tạo, Quận Bình Tân, TP. HCM",30.000đ - 70.000đ,12:00 - 18:00,9.326923076923077,Positive,10.758896478467234,106.60294000073966
67812ec1514dba6089ed91a7,Nhà Hàng Gardenai Chay,Món Việt,"SO10 Tòa A3 Vinhomes Gardenia, Hàm Nghi, P. Châu Diễn, Quận Nam Từ Liêm, Hà Nội",35.000đ - 100.000đ,08:00 - 22:00,9.32,Positive,,
67812ec1514dba6089ed9392,Trà Sữa ToCoToCo - 164 Lâm Văn Bền,Món Việt,"164 Lâm Văn Bền, P. Tân Quy, Quận 7, TP. HCM",28.000đ - 89.000đ,09:30 - 22:30,9.302884615384617,Positive,10.741414446735895,106.71588958130602
67812ec1514dba6089ed9446,Gà Rán Chicken Plus - Nguyễn Tri Phương,empty,"226 Nguyễn Tri Phương, P. 4, Quận 10, TP. HCM",35.000đ - 219.000đ,10:00 - 21:30,9.30197802197802,Positive,10.7613537,106.6687167
67812ec1514dba6089ed9218,Lyca - Healthy Foods & Drinks,Món Việt,"33 Ngõ 128C Đại La, P. Đồng Tâm, Quận Hai Bà Trưng, Hà Nội",20.000đ - 50.000đ,09:00 - 21:00,9.3,Positive,20.998709868845914,105.8446288948539
67812ec1514dba6089ed9380,Bánh Bèo Chén Quán Lá,Món Việt,"15/370 Đường 494, P. Tăng Nhơn Phú A, Tp. Thủ Đức, TP. HCM",15.000đ - 25.000đ,14:00 - 20:00,9.267596153846153,Positive,10.846483552493638,106.78586126223006
67812ec1514dba6089ed92bb,Cơm Chiên Thái & Mì Trộn Gà Quay Hồng Kông - Tuk Tuk,Món Việt,"13/5A (Mặt Tiền) Tô Ký, Xã Thới Tam Thôn, Huyện Hóc Môn, TP. HCM",20.000đ - 55.000đ,07:00 - 21:30,9.265192307692308,Positive,,
67812ec1514dba6089ed92d3,Bún Lòng Xào Nghệ Hằng Nga,Món Miền Trung,"95 An Trung Đông 7, P. An Hải Đông, Quận Sơn Trà, Đà Nẵng",10.000đ - 40.000đ,10:30 - 22:00,9.206346153846155,Positive,,
67812ec1514dba6089ed9278,LQS - Chuyên Bún Bò Huế & Cơm Rang Giòn - Trường Chinh,Món Việt,"40 Ng. 102 Trường Chinh, P. Phương Đình, Quận Đống Đa, Hà Nội",35.000đ - 55.000đ,09:00 - 21:00,9.2,Positive,,
67812ec1514dba6089ed9298,Bún Bò Huế Đường Tàu - Cầu Diễn,"Món Miền Trung, Món Thái","26 Cầu Diễn, (Gần Đường Tàu) P. Phúc Diễn, Quận Bắc Từ Liêm, Hà Nội",30.000đ - 30.000đ,06:30 - 22:00,9.2,Positive,,
67812ec1514dba6089ed9247,Sữa chua Trân Châu Hạ Long - Sữa Chua Hoa Quả - Lê Lai,Món Việt,"Số 14 LK22 Phố Lê Lai Lê Lai, P. Hà Cầu, Quận Hà Đông, Hà Nội",Đang cập nhật,10:00 - 22:00,9.2,Positive,,
67812ec1514dba6089ed9107,Tiệm Gà Ủ Muối - Gà Luộc & Gà Ủ Muối - 150 Phố Bùi Xương Trạch,empty,"150 Phố Bùi Xương Trạch, P. Định Công, Quận Hoàng Mai, Hà Nội",60.000đ - 120.000đ,09:00 - 23:00,9.2,Positive,20.987202385674994,105.81860765663302
67812ec1514dba6089ed92ae,Papa Lee's Noodle - Mì Hoành Thánh (Wonton Noodle) (云吞面) - Trần Phú,"Đặc biệt, Món Trung Hoa, Món Miền Nam","271 Trần Phú, P. 8, Quận 5, TP. HCM",Đang cập nhật,06:00 - 18:00,9.192307692307692,Positive,,
67812ec1514dba6089ed9436,Bún Bò Thố Đá & Lẩu Bò Nhúng Mắm Ruốc Bếp Ông Lập - Trường Sơn,empty,"75 Trường Sơn, P. 15, Quận 10, TP. HCM",55.000đ - 80.000đ,07:30 - 20:00,9.192307692307692,Positive,10.781660136812297,106.66303478158876
67812ec1514dba6089ed9333,Thiện Phước 1 - Ẩm Thực Chay,Món Việt,"132/26 Đường 3 Tháng 2, P. Hưng Lợi, Quận Ninh Kiều, Cần Thơ",25.000đ - 100.000đ,10:00 - 22:00,9.192307692307692,Positive,10.016736072597817,105.76082182685752
67812ec1514dba6089ed933b,Mì Độ Hàn Quốc 76 - Hưng Đạo Vương,Món Hàn,"149 Hưng Đạo Vương, P. Trung Dũng, Thành Phố Biên Hòa, Đồng Nai",40.000đ - 50.000đ,08:00 - 22:00,9.192307692307692,Positive,10.9511948198962,106.82332427233005
67812ec1514dba6089ed93c4,Kem Mẹ Thủy - Ice Cream - Đoàn Văn Bơ,Món Việt,"Tầng Trệt, 22 Đoàn Văn Bơ, P. 9, Quận 4, TP. HCM",30.000đ - 120.000đ,07:00 - 17:00,9.183653846153844,Positive,,
67812ec1514dba6089ed93ec,Sủi Cảo Gia Ý,Món Á,"548/29 Điện Biên Phủ, P. 21, Quận Bình Thạnh, TP. HCM",25.000đ - 45.000đ,00:01 - 03:00 | 16:00 - 23:59,9.182307692307692,Positive,,
67812ec1514dba6089ed928b,Ăn Vặt Giang Cún - Shop Online - Khương Trung,Món Việt,"2 Ngách 12 Ngõ 250 Khương Trung, Quận Thanh Xuân, Hà Nội",20.000đ - 50.000đ,08:00 - 22:30,9.18,Positive,,
67812ec1514dba6089ed9165,"Bánh Bao Nóng, Sữa Hạt & Nước Ép - Phố An Trạch",Món Việt,"45 Phố An Trạch, P. Quốc Tử Giám, Quận Đống Đa, Hà Nội",10.000đ - 50.000đ,06:00 - 22:30,9.18,Positive,21.0272615,105.8284696
67812ec1514dba6089ed9488,Vườn Chay - Bình Giã,Món Việt,"38/5 Bình Giã, P. 8, Tp. Vũng Tàu, Vũng Tàu",45.000đ - 200.000đ,10:00 - 13:30 | 17:00 - 21:30,9.163653846153846,Positive,10.356043880040023,107.09396508311792
67812ec1514dba6089ed940a,Chị Phương - Cơm Văn Phòng,Món Việt,"100/9 Nguyễn Công Trứ, P. Nguyễn Thái Bình, Quận 1, TP. HCM",30.000đ - 50.000đ,09:30 - 13:00,9.140769230769234,Positive,10.767288449999999,106.6998164
67812ec1514dba6089ed927b,Moli - Bạch Trà Quán,empty,"SH26 - CT1 - IEC (Nhà Ở Xã Hội IEC Residences) X. Tứ Hiệp, Huyện Thanh Trì, Hà Nội",Đang cập nhật,08:00 - 23:00,9.14,Positive,,
67812ec1514dba6089ed9257,Kichi Kichi Lẩu Băng Chuyền - Lạc Long Quân,Món Nhật,"Chung Cư WaterMark, 395 Lạc Long Quân, Quận Tây Hồ, Hà Nội",149.000đ - 220.000đ,10:00 - 22:00,9.14,Positive,,
67812ec1514dba6089ed9418,Kimbap TiTi - Món Hàn Quốc - Hoàng Sa,Món Hàn,"159/1/5 Trần Văn Đang, P. 11, Quận 3, TP. HCM",20.000đ - 55.000đ,09:30 - 22:00,9.131346153846154,Positive,,
67812ec1514dba6089ed9145,Tiệm Cơm Phúc - Shop Online,Món Việt,"Cổng Chợ Yên Xá, Huyện Thanh Trì, Hà Nội",10.000đ - 50.000đ,10:30 - 14:00 | 17:00 - 21:00,9.1,Positive,,
67812ec1514dba6089ed9342,Bún Đậu 2 Cô - Nguyễn Bảo Đức,Món Bắc,"4/10 Hẻm 4 Nguyễn Bảo Đức, Khu Phố 6, P. Tam Hiệp, Thành Phố Biên Hòa, Đồng Nai",12.000đ - 60.000đ,10:00 - 21:00,9.097884615384617,Positive,10.956822671246515,106.85912823169143
67812ec1514dba6089ed9313,TocoToco Bubble Tea - Đường D8,Món Việt,"145 Đường D8, Thành Phố Thủ Dầu Một, Bình Dương",29.000đ - 57.000đ,08:00 - 23:00,9.057692307692308,Positive,10.971740583966787,106.66460997436428
67812ec1514dba6089ed9401,"Be Besto - Mì Ý, Sandwich & Trà - Đình Nghi Xuân",empty,"78/13 Đình Nghi Xuân, P. Bình Trị Đông, Quận Bình Tân, TP. HCM",Đang cập nhật,07:00 - 22:00,9.006153846153847,Positive,10.769377771642759,106.62043130562958
67812ec1514dba6089ed91e3,Bếp Nhà Bun - Chân Gà Sả Ớt Online - Nguyễn Văn Huyên,Món Việt,"89 Nguyễn Văn Huyên, P. Quan Hoa, Quận Cầu Giấy, Hà Nội",30.000đ - 90.000đ,08:00 - 23:59,9.0,Positive,21.034246600000003,105.79731785000001
67812ec1514dba6089ed9203,Xôi Bự - Tôn Thất Tùng,Món Việt,"114 A11 Tôn Thất Tùng, P. Kim Liên, Quận Đống Đa, Hà Nội",15.000đ - 30.000đ,07:00 - 22:00,9.0,Positive,21.005727034485584,105.83093128370233
67812ec1514dba6089ed9211,Bà Hương - Bún Ốc & Bún Riêu Cua,Món Việt,"115 Trương Định, P. Trương Định, Quận Hai Bà Trưng, Hà Nội",20.000đ - 30.000đ,07:00 - 14:00,9.0,Positive,20.99512425,105.84967645
67812ec1514dba6089ed9147,Bún Đậu Thuỷ Gà - Ngã Tư La Dương,empty,"Ngã tư La Dương (Đường Lê Trọng Tấn), P.Dương Nội, Quận Hà Đông, Hà Nội",Đang cập nhật,06:30 - 13:00,9.0,Positive,,
67812ec1514dba6089ed9253,Quán SEOUL - Ẩm Thực Việt Hàn,empty,"Số 17 ngõ 27 Đức Giang, P. Đức Giang, Quận Long Biên, Hà Nội",Đang cập nhật,08:00 - 23:00,9.0,Positive,21.060821251569024,105.89237803181659
67812ec1514dba6089ed9182,Súp Cua - Phố Cự Lộc,Món Việt,"23 Phố Cự Lộc, P. Thượng Đình, Quận Thanh Xuân, Hà Nội",30.000đ - 45.000đ,10:00 - 22:00,9.0,Positive,21.000087923564184,105.81416196045828
67812ec1514dba6089ed9410,Som ตำ Thai - Crescent Mall,empty,"GF01 – Crescent Mall. 101 Tôn Dật Tiên, P. Tân Phú, Quận 7, TP. HCM",80.000đ - 500.000đ,10:30 - 21:15,8.994038461538462,Positive,,
67812ec1514dba6089ed9420,Trà Sữa Thơm - Shop Online,Món Việt,"19 Đường Số 3, P. Hiệp Bình Phước, Tp. Thủ Đức, TP. HCM",15.000đ - 25.000đ,07:00 - 17:30,8.990384615384615,Positive,10.849396015932003,106.72376639693022
67812ec1514dba6089ed912d,Ngọc Béo - Bún Đậu Mắm Tôm & Bún Cá Chấm,empty,"8 Ngõ 156 Phố Hồng Mai, P. Bạch Mai, Quận Hai Bà Trưng, Hà Nội",35.000đ - 45.000đ,10:00 - 14:00,8.98,Positive,20.9976076415208,105.85279185901688
67812ec1514dba6089ed9221,GoGi House - Nướng Hàn Quốc - Bùi Thị Xuân,Món Hàn,"151 Bùi Thị Xuân, Quận Hai Bà Trưng, Hà Nội",300.000đ - 500.000đ,09:00 - 22:00,8.98,Positive,21.01310205,105.85002751476893
67812ec1514dba6089ed939f,Cô Út Sài Gòn - Cơm Cháy Chà Bông,Món Việt,"301/34 Phan Xích Long, P. 1, Quận Phú Nhuận, TP. HCM",55.000đ - 120.000đ,09:00 - 18:00,8.966153846153848,Positive,10.798084289455355,106.68864616868669
67812ec1514dba6089ed9167,Trà Sữa Tiger Sugar Delivery - Đường Nâu Sữa Đài Loan - Trần Quốc Hoàn,Món Á,"263 Trần Quốc Hoàn, P. Dịch Vọng Hậu, Quận Cầu Giấy, Hà Nội",30.000đ - 50.000đ,09:00 - 22:30,8.96,Positive,21.04166165,105.78169412361206
67812ec1514dba6089ed93f7,Cá Nướng Rau Rừng,Món Việt,"87/45 Hồ Thị Kỷ, P. 1, Quận 10, TP. HCM",50.000đ - 150.000đ,10:00 - 20:00,8.949711538461537,Positive,10.764759845438808,106.67715998371919
67812ec1514dba6089ed936b,KAZAMA - Japanese Fusion Restaurant,Món Nhật,"14B15 Đường Thảo Điền, P. Thảo Điền, Quận 2, TP. HCM",200.000đ - 300.000đ,11:00 - 23:00,8.94,Positive,10.805006237272773,106.74610336285754
67812ec1514dba6089ed927c,Lươn Xứ Nghệ - Cốm Vòng,Món Việt,"43 Cốm Vòng, Quận Cầu Giấy, Hà Nội",30.000đ - 55.000đ,07:00 - 22:00,8.92,Positive,,
67812ec1514dba6089ed9198,Linh Chi - Bánh Tráng Trộn,Món Miền Nam,"66 Mễ Trì Thượng, Quận Nam Từ Liêm, Hà Nội",20.000đ - 50.000đ,10:00 - 19:00,8.9,Positive,21.005175323326355,105.77945261479418
67812ec1514dba6089ed93cc,Song Yến - Bún Thịt Nướng & Bún Bò,Món Việt,"33 Lê Lăng, P. Phú Thọ Hòa, Quận Tân Phú, TP. HCM",25.000đ - 50.000đ,06:00 - 12:30,8.897307692307692,Positive,10.784664178635914,106.62247357497195
67812ec1514dba6089ed92b5,Bobo Farm - Gà Rán - Lý Phục Man,empty,"Kiot 7, 4 Lý Phục Man, P. Bình Thuận, Quận 7, TP. HCM",10.000đ - 150.000đ,10:00 - 22:00,8.875,Positive,,
67812ec1514dba6089ed931e,Lotteria - Becamex Bình Dương,empty,"Tầng Trệt Tòa Nhà Becamex Tower, 230 Đại Lộ Bình Dương, P. Phú Hòa, Thành Phố Thủ Dầu Một, Bình Dương",30.000đ - 100.000đ,08:00 - 21:00,8.875,Positive,,
67812ec1514dba6089ed937d,Chả Lụi Mẹt Xù Lagi - Nguyễn Đỗ Cung,Món Miền Trung,"64 Nguyễn Đỗ Cung, P. Tây Thạnh, Quận Tân Phú, TP. HCM",Đang cập nhật,09:00 - 22:00,8.875,Positive,10.807540833712805,106.62928758522048
67812ec1514dba6089ed945c,Bánh Mì Bột Lọc - Thịt Chả,Món Việt,"Nguyễn Trường Tộ, Tp. Huế, Huế",5.000đ - 10.000đ,06:00 - 09:00,8.871538461538462,Positive,16.458652226524578,107.58557690469259
67812ec1514dba6089ed9395,"Miến Trộn, Gà Xé & Gỏi Gà Vịt - Chung Cư Nguyễn Thiện Thuật",Món Việt,"017 Lô C Chung Cư Nguyễn Thiện Thuật, Nguyễn Thiện Thuật, P. 1, Quận 3, TP. HCM",10.000đ - 110.000đ,07:00 - 20:00,8.861538461538462,Positive,,
67812ec1514dba6089ed922a,Bún Bò Huế Nam Minh - Đội Cấn,Món Việt,"216 Đội Cấn, Quận Ba Đình, Hà Nội",30.000đ - 50.000đ,07:00 - 14:00 | 16:00 - 20:00,8.86,Positive,21.0346472,105.8266045
67812ec1514dba6089ed9346,Mì Bún Ốc Hến - Chợ 57,Món Việt,"Chợ 57, 25/5 Phạm Văn Thuận, KP. 3, P. Thống Nhất, Thành Phố Biên Hòa, Đồng Nai",25.000đ - 25.000đ,11:00 - 22:00,8.855769230769234,Positive,,
67812ec1514dba6089ed936a,Tropicana Sushi & Salad,Món Nhật,"25/12 Nguyễn Thị Minh Khai, P. Bến Nghé, Quận 1, TP. HCM",30.000đ - 100.000đ,10:00 - 20:00,8.8,Positive,10.784177153570935,106.6993111961691
67812ec1514dba6089ed935e,Cô Út - Bún Nước Lèo Sóc Trăng,Món Việt,"189/2/3 Hoàng Hoa Thám, P. 6, Quận Bình Thạnh, TP. HCM",40.000đ - 50.000đ,06:00 - 14:00 | 16:00 - 21:00,8.8,Positive,,
67812ec1514dba6089ed923c,Huyền Hương - Ẩm Thực Việt Nam,Món Việt,"20 Bảo Khánh, P. Hàng Trống, Quận Hoàn Kiếm, Hà Nội",20.000đ - 100.000đ,08:00 - 23:00,8.8,Positive,21.03071261940787,105.85028679460457
67812ec1514dba6089ed9286,Bánh Đúc Bà Nga - Shop Online - Đội Cấn,Món Việt,"7 Ngõ 210 Đội Cấn, P. Đội Cấn, Quận Ba Đình, Hà Nội",25.000đ - 50.000đ,11:00 - 23:00,8.8,Positive,21.03452663128592,105.82096748502283
67812ec1514dba6089ed9470,Bún Cá Cay Hải Quỳnh - Đặc Sản Hải Phòng,Món Việt,"05 Dương Văn An, P. Xuân Phú, Tp. Huế, Huế",7.000đ - 35.000đ,06:00 - 22:00,8.788461538461537,Positive,16.467721058673394,107.6036574591652
67812ec1514dba6089ed9452,The Thai Cuisine - Lê Quang Đạo,empty,"4 Lê Quang Đạo, P. Xuân Phú, Tp. Huế, Huế",15.000đ - 449.000đ,10:00 - 22:00,8.788461538461537,Positive,16.463085861391388,107.60441697573195
67812ec1514dba6089ed938a,Gỏi Cuốn 6 Hương,empty,"02 Công Trường Hoà Bình, P. 19, Quận Bình Thạnh, TP. HCM",10.000đ - 99.000đ,10:00 - 21:00,8.788461538461537,Positive,10.7919096,106.7076123
67812ec1514dba6089ed9361,Bánh Canh Cá Lóc - 62/1 Ngô Tất Tố,Món Việt,"62/1 Ngô Tất Tố , P. 19, Quận Bình Thạnh, TP. HCM",20.000đ - 39.000đ,06:00 - 21:00,8.755192307692308,Positive,10.79284154692742,106.71125575649013
67812ec1514dba6089ed940c,Minh Khang - Gà Ác Tiềm Thuốc Bắc & Súp Cua,Món Việt,"23A Miếu Gò Xoài, Quận Bình Tân, TP. HCM",15.000đ - 50.000đ,00:01 - 02:00 | 10:00 - 23:59,8.740384615384617,Positive,10.77981577745176,106.60381001862427
67812ec1514dba6089ed9216,Fam's Chicken - Ngoại Giao Đoàn,Món Hàn,"LK A04, Embassy Garden, KĐT Tây Hồ Tây, Xuân Tảo, P. Xuân Tảo, Quận Bắc Từ Liêm, Hà Nội",50.000đ - 150.000đ,10:00 - 23:00,8.74,Positive,,
67812ec1514dba6089ed947a,"Highlands Coffee - Trà, Cà Phê & Bánh - 304 Lê Hồng Phong VT",Món Việt,"304 Lê Hồng Phong, P. 4, Tp. Vũng Tàu, Vũng Tàu",35.000đ - 55.000đ,07:00 - 22:00,8.734615384615385,Positive,10.3548564,107.084461
67812ec1514dba6089ed93e1,Ô Ri - Quán Nướng Hàn Quốc,Món Hàn,"71/1 Chế Lan Viên, P. Tây Thạnh, Quận Tân Phú, TP. HCM",10.000đ - 150.000đ,10:00 - 23:00,8.732472527472527,Positive,10.810982854119516,106.62628815940168
67812ec1514dba6089ed92e4,Sinh Tố Kim - Đồ Chiểu,Món Việt,"32 Đồ Chiểu, P. 1, Tp. Vũng Tàu, Vũng Tàu",20.000đ - 30.000đ,16:00 - 23:59,8.721153846153847,Positive,10.34908815,107.07782582803613
67812ec1514dba6089ed93e4,Sinh Tố Ku Kun - Nơ Trang Long,Món Việt,"416 Nơ Trang Long, P. 13, Quận Bình Thạnh, TP. HCM",12.000đ - 20.000đ,08:00 - 23:59,8.721153846153847,Positive,10.821585489242471,106.7061002687018
67812ec1514dba6089ed949a,Ái Vy - Sinh Tố & Nước Ép,Món Việt,"37 Công Chúa Ngọc Hân, P. 13, Quận 11, TP. HCM",10.000đ - 20.000đ,empty,8.72,Positive,,
67812ec1514dba6089ed9230,Pizza 4P's - Pizza Kiểu Nhật - Ngõ Bảo Khánh,Món Nhật,"11B Ngõ Bảo Khánh, P. Hàng Trống, Quận Hoàn Kiếm, Hà Nội",100.000đ - 400.000đ,10:00 - 22:30,8.72,Positive,21.030813,105.8505424
67812ec1514dba6089ed9447,Manwah Taiwanese Hotpot - Gala Center Hoàng Văn Thụ,Đài Loan,"Tầng 1, Tầng 1 Gala Center Hoàng Văn Thụ, 415 Hoàng Văn Thụ, P. 2, Quận Tân Bình, TP. HCM",390.000đ - 480.000đ,10:00 - 22:00,8.704615384615384,Positive,,
67812ec1514dba6089ed9438,HOLIZ - Bánh & Trà Sữa,Món Việt,"97/6A Hưng Phú, P. 8, Quận 8, TP. HCM",20.000đ - 110.000đ,10:00 - 22:00,8.702884615384615,Positive,10.745247433002614,106.66342057533456
67812ec1514dba6089ed9431,Manwah Taiwanese Hotpot - An Dương Vương,Đài Loan,"65 An Dương Vương, P. 8, Quận 5, TP. HCM",390.000đ - 480.000đ,00:01 - 01:30 | 10:00 - 23:59,8.68423076923077,Positive,,
67812ec1514dba6089ed9321,GreenFields Tacos - Thức Ăn Giải Khát Món Mexico - 40 Lý Tự Trọng,Mexico,"40 Lý Tự Trọng, P. Thủ Dầu Một, Thành Phố Thủ Dầu Một, Bình Dương",Đang cập nhật,09:00 - 22:00,8.653846153846153,Positive,10.948792124518848,106.65933807019005
67812ec1514dba6089ed934b,Canh Bún & Bánh Đa - Đường 30 Tháng 4,Món Việt,"Hẻm 34 Đường 30 Tháng 4, P. Trung Dũng, Thành Phố Biên Hòa, Đồng Nai",20.000đ - 20.000đ,14:00 - 18:00,8.653846153846153,Positive,10.95477275,106.825342
67812ec1514dba6089ed9345,Bánh Mì Chảo Phúc Khang - Huỳnh Văn Lũy,Món Việt,"9 Huỳnh Văn Lũy, P. Hòa Bình, Thành Phố Biên Hòa, Đồng Nai",20.000đ - 30.000đ,06:00 - 11:00,8.653846153846153,Positive,,
67812ec1514dba6089ed93b1,"Highlands Coffee - Trà, Cà Phê & Bánh - Flora Thủ Đức",Món Việt,"Tòa nhà Flora Novia, Phạm Văn Đồng, P. Linh Tây, Tp. Thủ Đức, TP. HCM",30.000đ - 60.000đ,07:00 - 23:00,8.653846153846153,Positive,,
67812ec1514dba6089ed931f,Cơm Tấm Huỳnh Mai,Món Miền Nam,"Lý Thường Kiệt, Thị Xã Dĩ An, Bình Dương",20.000đ - 55.000đ,15:00 - 22:00,8.653846153846153,Positive,10.909778450000001,106.7449766
67812ec1514dba6089ed9315,Súp Cua Dốc Sỏi,Món Việt,"249/2 Thủ Khoa Huân, P. An Thạnh, Thị Xã Thuận An, Bình Dương",12.000đ - 30.000đ,13:00 - 17:30,8.653846153846153,Positive,,
67812ec1514dba6089ed92e2,Quán Ba Nếp - Bò Kho & Bún Bò,Món Việt,"196A Xô Viết Nghệ Tĩnh, P. Thắng Tam, Tp. Vũng Tàu, Vũng Tàu",15.000đ - 30.000đ,06:00 - 22:30,8.653846153846153,Positive,10.350951651574496,107.08809103882442
67812ec1514dba6089ed945b,Bún Trộn O Hạnh,Món Huế,"Kiệt 271 Chi Lăng, Tp. Huế, Huế",5.000đ - 15.000đ,06:30 - 09:30,8.653846153846153,Positive,,
67812ec1514dba6089ed948e,Bếp Mẹ Mía - Ăn Vặt Online,Món Việt,"Ngã 6 Chợ Cát Bi, P. Thành Tô, Quận Hải An, Hải Phòng",35.000đ - 120.000đ,empty,8.638901098901098,Positive,,
67812ec1514dba6089ed93be,"Highlands Coffee - Trà, Cà Phê & Bánh - Dinh Độc Lập",Món Việt,"135 Nam Kỳ Khởi Nghĩa, P. Bến Nghé, Quận 1, TP. HCM",25.000đ - 60.000đ,08:00 - 22:00,8.636153846153846,Positive,10.7770348,106.69548803180103
67812ec1514dba6089ed9394,Tokyo Deli Express - Sushi - Phan Văn Trị,Món Nhật,"366A3 Phan Văn Trị, P. 5, Quận Gò Vấp, TP. HCM",80.000đ - 200.000đ,11:00 - 20:00,8.63076923076923,Positive,,
67812ec1514dba6089ed9351,Bò Né 38 - Thống Nhất,Món Việt,"38 Thống Nhất, P.10, Quận Gò Vấp, TP. HCM",30.000đ - 45.000đ,06:30 - 10:30 | 16:30 - 21:00,8.626923076923077,Positive,10.837845757833286,106.66506457953346
67812ec1514dba6089ed945f,Trà Sữa Picoin,Món Việt,"1 Âu Lạc, P. An Đông, Tp. Huế, Huế",18.000đ - 49.000đ,07:00 - 23:00,8.626208791208791,Positive,,
67812ec1514dba6089ed9396,Basax - Chicken & Korean Food - E Mart Gò Vấp,Món Hàn,"366 Phan Văn Trị, P. 5, Quận Gò Vấp, TP. HCM",59.000đ - 119.000đ,09:00 - 21:00,8.624350961538461,Positive,10.824852097647556,106.69078103284205
67812ec1514dba6089ed9150,Bít Tết Ngọc Hiếu - Trần Duy Hưng,Món Huế,"71 Trần Duy Hưng, P. Trung Hòa, Quận Cầu Giấy, Hà Nội",55.000đ - 88.000đ,07:30 - 22:00,8.62,Positive,21.009736226155432,105.80196655797239
67812ec1514dba6089ed9464,"Bé Kem - Bánh Tráng Kẹp Đà Nẵng - Ngô Gia Tự, TP Huế",Món Quảng,"29 Ngô Gia Tự, P. Vĩnh Ninh, Tp. Huế, Huế",15.000đ - 30.000đ,15:30 - 21:30,8.610961538461538,Positive,16.460320364507016,107.59011317509885
67812ec1514dba6089ed924d,Xôi Hoa Vàng - Xôi Ruốc Cá Rô Đồng,Món Việt,"1A Ngõ 46 Phạm Ngọc Thạch, Quận Đống Đa, Hà Nội",15.000đ - 50.000đ,10:00 - 21:00,8.6,Positive,21.0103514100626,105.83572420462757
67812ec1514dba6089ed9364,Marukame Udon - Udon & Tempura - Vạn Hạnh Mall,Món Nhật,"Tầng 6, 6-08&7A Vạn Hạnh Mall, 11 Sư Vạn Hạnh, P. 12, Quận 10, TP. HCM",39.000đ - 119.000đ,10:00 - 21:30,8.6,Positive,,
67812ec1514dba6089ed92ef,My Garden Coffee & Tea,Món Việt,"Quốc Lộ 51, KP. Phước Lập, P. Mỹ Xuân, Thị Xã Phú Mỹ, Vũng Tàu",15.000đ - 39.000đ,07:00 - 22:00,8.6,Positive,10.640808736038533,107.04511961521268
67812ec1514dba6089ed91f2,Phượng - Cháo Lòng,Món Việt,"Ki Ốt 10 Trần Quang Diệu, Quận Đống Đa, Hà Nội",20.000đ - 50.000đ,06:30 - 21:00,8.6,Positive,,
67812ec1514dba6089ed9137,SI Cuisine & Mixology Takeaway - Hàng Bài,"Món Bắc, Món Trung Hoa, Món Miền Nam, Món Nhật, Món Thái","18 Hàng Bài, P. Hàng Bài, Quận Hoàn Kiếm, Hà Nội",500.000đ - 800.000đ,09:00 - 21:00,8.6,Positive,,
67812ec1514dba6089ed9192,Chef Sáng - Bánh Ngọt Pháp,Pháp,"277 Xã Đàn, P. Nam Đồng, Quận Đống Đa, Hà Nội",20.000đ - 100.000đ,08:30 - 22:00,8.6,Positive,21.015814336985994,105.83249607066193
67812ec1514dba6089ed93a5,"Chân Gà Dzô Dzô - Nem Nướng, Cá Viên Chiên & Ăn Vặt - Trường Chinh",Món Việt,"491/4 Trường Chinh, P. 14, Quận Tân Bình, TP. HCM",85.000đ - 150.000đ,06:00 - 23:00,8.596923076923076,Positive,10.798503290511313,106.64283514758552
67812ec1514dba6089ed941d,Harvest Baking Bakery - Bánh Mì Tươi Ngon,"Món Việt, Quốc tế","5 Đường Số 7, KĐT Vạn Phúc, P. Hiệp Bình Phước, Tp. Thủ Đức, TP. HCM",18.000đ - 625.000đ,09:00 - 13:00,8.592153846153845,Positive,,
67812ec1514dba6089ed9376,Trà Sữa Chờ,Món Việt,"407 Nguyễn Văn Công, P. 3, Quận Gò Vấp, TP. HCM",12.000đ - 30.000đ,12:00 - 20:00,8.58,Positive,10.821023593582106,106.67407417605389
67812ec1514dba6089ed946b,Quán Tý - Xôi Gà & Cháo Gà,Món Việt,"Phó Đức Chính, Tp. Huế, Huế",20.000đ - 40.000đ,16:00 - 22:00,8.570769230769232,Positive,16.466205249999998,107.5950305
67812ec1514dba6089ed9105,XOI FOOD - Xôi Nếp Nương & Cơm Văn Phòng,Món Việt,"126 Nguyễn Văn Trỗi, P. Mộ Lao, Quận Hà Đông, Hà Nội",20.000đ - 30.000đ,07:00 - 14:00 | 17:00 - 21:00,8.56,Positive,20.982739887607693,105.78540592416532
67812ec1514dba6089ed9442,Triệu Minh Hiệp - Tiệm Bánh Người Hoa,Món Trung Hoa,"123/23 Bình Tây, P. 1, Quận 6, TP. HCM",20.000đ - 55.000đ,10:00 - 18:30,8.52923076923077,Positive,10.745192200000002,106.65210135000001
67812ec1514dba6089ed946a,Seaweed Food - Bánh Canh Cua Rong Biển,Món Việt,"5 Nhật Lệ, P. Thuận Thành, Tp. Huế, Huế",15.000đ - 20.000đ,06:00 - 21:00,8.522225274725276,Positive,16.477586894642474,107.58081586444746
67812ec1514dba6089ed9306,Bánh Canh Phú Mỹ,Món Việt,"386 Huỳnh Văn Lũy, P. Phú Mỹ, Thành Phố Thủ Dầu Một, Bình Dương",25.000đ - 35.000đ,10:00 - 19:00,8.51923076923077,Positive,11.007415744425506,106.67632543488128
67812ec1514dba6089ed92b6,Bánh Xếp Thảo - Hải Thượng Lãng Ông,Món Việt,"266 Hải Thượng Lãng Ông, P. 14, Quận 5, TP. HCM",10.000đ - 15.000đ,09:00 - 22:00,8.51923076923077,Positive,,
67812ec1514dba6089ed9463,Cháo Ếch Singapore Ghiền - Chi Nhánh Huế,empty,"51 Lê Lợi, P. Phú Hội, Tp. Huế, Huế",12.000đ - 80.000đ,14:00 - 23:00,8.51923076923077,Positive,16.46955126182457,107.59315208840758
67812ec1514dba6089ed9310,Cô Chiêu - Trà Sữa & Bún Đậu,Món Việt,"Hùng Vương, Xã An Điền, Thị Xã Bến Cát, Bình Dương",15.000đ - 50.000đ,07:00 - 21:00,8.519230769230768,Positive,,
67812ec1514dba6089ed9469,Quán Nhậu Sơn Tùng,Món Việt,"61 Lê Thánh Tôn, P. Thuận Lộc, Tp. Huế, Huế",25.000đ - 95.000đ,15:30 - 23:00,8.519230769230768,Positive,16.475506983752762,107.58191864828387
67812ec1514dba6089ed9471,Highlands Coffee - Đại Nội,Món Việt,"Khu Đại Nội, Tp. Huế, Huế",19.000đ - 65.000đ,07:00 - 22:00,8.505384615384616,Positive,,
67812ec1514dba6089ed920d,"Kim Liên - Bún, Miến & Bánh Đa Cua - Lương Định Của",Món Việt,"116B15 Lương Định Của, TT Kim Liên, P. Kim Liên, Quận Đống Đa, Hà Nội",20.000đ - 40.000đ,06:30 - 14:00,8.5,Positive,,
67812ec1514dba6089ed9285,Bánh Đúc Bà Nga - Shop Online - Láng Hạ,Món Việt,"Đầu Ngõ 29 Láng Hạ, P. Ô Chợ Dừa, Quận Đống Đa, Hà Nội",25.000đ - 50.000đ,10:00 - 18:00,8.5,Positive,,
67812ec1514dba6089ed9292,Phệ Quán - Lẩu 1 Người & Bún Thái Hải Sản,"Món Thái, Singapore","Số 1 Ngách 3 Ngõ 218 Lĩnh Nam, P. Vĩnh Hưng, Quận Hoàng Mai, Hà Nội",25.000đ - 249.000đ,07:00 - 22:00,8.5,Positive,,
67812ec1514dba6089ed9382,Tàu Hũ PaPa - Cây Trâm,Món Việt,"132 Nguyễn Văn Khối, P. 9, Quận Gò Vấp, TP. HCM",15.000đ - 30.000đ,10:20 - 22:20,8.486538461538462,Positive,,
67812ec1514dba6089ed9355,Phở Bùi Gia,Món Việt,"56 Xuân Thủy, P. Thảo Điền, Tp. Thủ Đức, TP. HCM",10.000đ - 100.000đ,06:00 - 13:30 | 16:30 - 22:00,8.480384615384615,Positive,10.803767880577992,106.73470254126825
67812ec1514dba6089ed913c,LAM - Đặc Sản Bình Định,Món Việt,"110/34 Hoàng Cầu, P. Ô Chợ Dừa, Quận Đống Đa, Hà Nội",20.000đ - 100.000đ,10:00 - 14:00,8.48,Positive,21.019097543913908,105.82371065693701
67812ec1514dba6089ed9326,"Highlands Coffee - Trà, Cà Phê & Bánh - Vincom Xuân Khánh",Món Việt,"Vincom Xuân Khánh, 209 Đường 30 Tháng 4, P. Xuân Khánh, Quận Ninh Kiều, Cần Thơ",9.000đ - 65.000đ,07:00 - 22:00,8.462307692307693,Positive,10.0248398,105.775603
67812ec1514dba6089ed92e9,Quán Lá - Hải Sản Tươi Sống,Món Việt,"311 Thống Nhất, P. 8, Tp. Vũng Tàu, Vũng Tàu",25.000đ - 850.000đ,10:00 - 22:00,8.436153846153847,Positive,10.350102361252997,107.0843403197942
67812ec1514dba6089ed93a0,Bánh Tráng Kim Thủy - Dương Bá Trạc,Món Việt,"450/48 Dương Bá Trạc, P. 1, Quận 8, TP. HCM",18.000đ - 55.000đ,08:00 - 21:30,8.426153846153845,Positive,10.744351058258712,106.68894974870116
67812ec1514dba6089ed925a,Gà Rán MoMo - An Hòa,Món Hàn,"74 P. An Hòa, P. Mộ Lao, Quận Hà Đông, Hà Nội",50.000đ - 150.000đ,10:00 - 22:00,8.42,Positive,20.98376684843417,105.78984854644072
67812ec1514dba6089ed9465,Bánh Tiêu Trần Quốc Toản,Món Việt,"8 Lâm Mông Quang, P. Thuận Thành, Tp. Huế, Huế",3.000đ - 5.000đ,16:00 - 21:00,8.411538461538461,Positive,16.47065619497811,107.58434764734106
67812ec1514dba6089ed9461,Shino - Sushi & BBQ - 35 Nguyễn Thái Học,Món Nhật,"35 Nguyễn Thái Học, P. Phú Hội, Tp. Huế, Huế",35.000đ - 120.000đ,10:00 - 13:30 | 16:00 - 22:30,8.407564102564102,Positive,16.468269451620607,107.59669468534449
67812ec1514dba6089ed9134,Phở 10 Hà Nội Xưa - Doãn Kế Thiện,Món Việt,"39 Doãn Kế Thiện, P. Mai Dịch, Quận Cầu Giấy, Hà Nội",35.000đ - 66.000đ,05:30 - 13:30 | 17:30 - 22:00,8.4,Positive,21.0409156,105.7792113
67812ec1514dba6089ed9356,Phở 24 - Nguyễn Cơ Thạch,Món Việt,"Khu Đô Thị Sala, 125 - 127 Nguyễn Cơ Thạch, P. An Lợi Đông, Tp. Thủ Đức, TP. HCM",25.000đ - 55.000đ,06:00 - 22:00,8.384615384615383,Positive,,
67812ec1514dba6089ed9432,Cô Loan - Bánh Tráng Chấm,Món Việt,"146/11 Nguyễn Chế Nghĩa, P. 12, Quận 8, TP. HCM",10.000đ - 20.000đ,11:00 - 19:00,8.384615384615383,Positive,,
67812ec1514dba6089ed9491,"Huyền - Bánh Bèo, Bánh Cuốn & Bánh Dò Gio",Món Việt,"65 Chu Văn An, P. Lê Lợi, Quận Ngô Quyền, Hải Phòng",20.000đ - 20.000đ,empty,8.384615384615383,Positive,,
67812ec1514dba6089ed946e,Garden Coffee & Milk Tea,Món Việt,"115 Nguyễn Kim Thành, Thị Trấn Sịa, Huyện Quảng Điền, Huế",8.000đ - 35.000đ,06:00 - 23:00,8.384615384615383,Positive,,
67812ec1514dba6089ed9262,Tuấn Minh - Phở Gà & Bún Thang,Món Việt,"3 Tô Hiến Thành, P. Bùi Thị Xuân, Quận Hai Bà Trưng, Hà Nội",35.000đ - 45.000đ,05:30 - 13:30,8.38,Positive,,
67812ec1514dba6089ed91ad,"Mì Vằn Thắn, Sủi Cảo & Bún Thang - Tô Hiệu",Món Việt,"102 B8 Tô Hiệu, P. Nghĩa Tân, Quận Cầu Giấy, Hà Nội",25.000đ - 45.000đ,07:00 - 21:00,8.38,Positive,21.042191537793975,105.79558553963706
67812ec1514dba6089ed9459,Bún Trộn Cây Sung,Món Huế,"Đối diện 15 Lương Văn Can, P. An Cựu, Tp. Huế, Huế",5.000đ - 10.000đ,06:00 - 10:00,8.374615384615385,Positive,,
67812ec1514dba6089ed93df,Cơm Tấm Hoàng Gia,Món Việt,"57 Bửu Đình, Quận 6, TP. HCM",28.000đ - 44.000đ,06:00 - 15:00,8.357692307692307,Positive,10.748655519866247,106.64501316344719
67812ec1514dba6089ed925d,Bánh Mì Phố - Hàng Bông,Món Việt,"64 Hàng Bông, P. Hàng Gai, Quận Hoàn Kiếm, Hà Nội",25.000đ - 50.000đ,07:00 - 21:00,8.34,Positive,21.0306006,105.8475703
67812ec1514dba6089ed945d,Bánh Lọc & Bánh Bao Huyền Phương,Món Việt,"10/92 Dương Văn An, P. Xuân Phú, Tp. Huế, Huế",3.000đ - 15.000đ,06:00 - 22:00,8.33076923076923,Positive,16.467721058673394,107.6036574591652
67812ec1514dba6089ed9261,Bún Hải Sản - Linh Đàm,Món Việt,"CT2-X2 Bắc Linh Đàm, P. Hoàng Liệt, Quận Hoàng Mai, Hà Nội",20.000đ - 80.000đ,06:00 - 14:00,8.32,Positive,20.96756535,105.82440638870665
67812ec1514dba6089ed929d,Hoa Quả Dầm - Đê La Thành,Món Việt,"360 Đê La Thành (Cổng Trường Mĩ Thuật Công Nghiệp), Quận Đống Đa, Hà Nội",5.000đ - 20.000đ,09:00 - 20:00,8.32,Positive,,
67812ec1514dba6089ed93e6,Chivago Chicken - Gà Rán Hàn Quốc & Bia - Nguyễn Thị Thập,Món Hàn,"318 Nguyễn Thị Thập, P. Tân Quy, Quận 7, TP. HCM",100.000đ - 500.000đ,00:01 - 01:00 | 11:00 - 23:59,8.308626373626373,Positive,10.739693742714524,106.70527515627892
67812ec1514dba6089ed923a,Bếp Cô Ba - Lẩu & Đồ Ăn Vặt,Món Việt,"1 Ngõ Phan Chu Trinh, P. Phan Chu Trinh, Quận Hoàn Kiếm, Hà Nội",50.000đ - 220.000đ,09:00 - 21:00,8.3,Positive,21.019269077696677,105.8560965640628
67812ec1514dba6089ed9369,Yummy Frog - Cháo Ếch Singapore - Đường Số 10,empty,"168 Đường Số 10, P. Phước Bình, Tp. Thủ Đức, TP. HCM",10.000đ - 113.000đ,10:00 - 22:00,8.3,Positive,10.814019995044777,106.77062638110053
67812ec1514dba6089ed9260,Bánh Mì Phố - Trần Bình Trọng,Món Việt,"29A Trần Bình Trọng, P. Trần Hưng Đạo, Quận Hoàn Kiếm, Hà Nội",25.000đ - 50.000đ,06:00 - 23:00,8.3,Positive,21.02202141051954,105.84508159173886
67812ec1514dba6089ed9166,Trà Sữa Sharetea Nhà Thờ - Phố Nguyễn Thị Định,Đài Loan,"27B Phố Nguyễn Thị Định, P. Trung Hoà, Quận Cầu Giấy, Hà Nội",40.000đ - 80.000đ,09:30 - 23:00,8.3,Positive,21.01128654659051,105.80450037919896
67812ec1514dba6089ed9112,Diệp Diệp - Chân Gà Ngâm Sả Ớt - Shop Online,empty,"25 Ngách 322/17 Mỹ Đình, P. Mỹ Đình 1, Quận Nam Từ Liêm, Hà Nội",50.000đ - 500.000đ,08:00 - 20:30,8.28,Positive,,
67812ec1514dba6089ed921f,Cơm Tấm Tô Lương - Cơm Sườn & Cơm Gà,Món Việt,"Số 20 Ngõ 122 Định Công, P. Định Công, Quận Hoàng Mai, Hà Nội",20.000đ - 55.000đ,10:00 - 23:00,8.28,Positive,,
67812ec1514dba6089ed93cf,Bánh Đúc Nóng Lan Hương - Võ Thị Sáu,Món Việt,"128 Võ Thị Sáu, Quận 3, TP. HCM",10.000đ - 12.000đ,06:00 - 09:00 | 15:00 - 18:30,8.278484162895927,Positive,10.782932,106.6893481
67812ec1514dba6089ed9402,Cơm Gà Xối Mỡ Thạch Lam - Kênh Tân Hóa,Món Việt,"277D Kênh Tân Hóa, P. Hòa Thạnh, Quận Tân Phú, TP. HCM",20.000đ - 30.000đ,10:00 - 21:00,8.276483516483516,Positive,10.776235844602503,106.63851005846028
67812ec1514dba6089ed9397,Starbucks Coffee - Golden Mansion,empty,"Lô TM 1.01, Tầng 1, Tòa Nhà Golden Mansion, 119 Phổ Quang, Quận Phú Nhuận, TP. HCM",50.000đ - 200.000đ,06:30 - 21:30,8.26,Positive,,
67812ec1514dba6089ed93f0,Him Coffee & More - Lê Văn Sỹ,Món Việt,"323 Lê Văn Sỹ, P. 1, Quận Tân Bình, TP. HCM",30.000đ - 55.000đ,08:00 - 22:30,8.2575,Positive,10.795975751463102,106.66598181311318
67812ec1514dba6089ed9454,Kim Đồng - Bún Bò Huế - Hai Bà Trưng,Món Huế,"56 Hai Bà Trưng, P. Vĩnh Ninh, Tp. Huế, Huế",20.000đ - 30.000đ,06:00 - 21:00,8.255769230769232,Positive,16.46273097034744,107.58848147674708
67812ec1514dba6089ed92a2,Hoàng Phố - Lẩu Nấm Thiên Nhiên,Món Việt,"28 - 30 Lê Đức Thọ, Quận Nam Từ Liêm, Hà Nội",100.000đ - 400.000đ,09:00 - 14:00 | 17:00 - 22:00,8.24,Positive,21.035876255708725,105.77065611002959
67812ec1514dba6089ed93d9,Quán Chay 103,Món Việt,"103 Nguyễn Thái Bình, P. Nguyễn Thái Bình, Quận 1, TP. HCM",20.000đ - 40.000đ,07:00 - 20:30,8.24,Positive,10.768919062021153,106.69938580706894
67812ec1514dba6089ed9455,Quán Bánh Chi - Lê Viết Lượng,Món Huế,"52 Lê Viết Lượng, P. Xuân Phú, Tp. Huế, Huế",15.000đ - 50.000đ,14:00 - 20:00,8.225576923076922,Positive,16.462184818924566,107.60314698261281
67812ec1514dba6089ed918b,Quán Bác Tươi - Phở Gà - TT Quỳnh Mai,Món Việt,"101 C7 TT Quỳnh Mai, P. Quỳnh Mai, Quận Hai Bà Trưng, Hà Nội",15.000đ - 30.000đ,14:00 - 19:00,8.22,Positive,,
67812ec1514dba6089ed91a9,Colline De Cafe,Quốc tế,"Ngõ 268 Ngọc Thuỵ, P. Ngọc Thụy, Quận Long Biên, Hà Nội",15.000đ - 50.000đ,06:00 - 22:00,8.2,Positive,21.056869577080306,105.8676317246032
67812ec1514dba6089ed9213,Lăng + - Cá Lăng Mộ Lao,Món Việt,"40 LK11B KĐT Mộ Lao, Quận Hà Đông, Hà Nội",100.000đ - 300.000đ,10:00 - 21:00,8.2,Positive,,
67812ec1514dba6089ed91b3,Hải Sản 247 - Shop Online,Món Việt,"14 Lô 6 Chung Cư An Lạc Phùng Khoang , Quận Nam Từ Liêm, Hà Nội",75.000đ - 520.000đ,09:00 - 22:00,8.2,Positive,,
67812ec1514dba6089ed920e,Ngân Béo - Bún Cá & Bún Riêu Cua,Món Việt,"P110B Ngõ 10 Tôn Thất Tùng, P. Kim Liên, Quận Đống Đa, Hà Nội",25.000đ - 30.000đ,06:00 - 13:00,8.2,Positive,,
67812ec1514dba6089ed91dc,Gà Tần Bà Duyên,Món Việt,"183 Trương Định, P. Tương Mai, Quận Hoàng Mai, Hà Nội",25.000đ - 70.000đ,17:30 - 22:30,8.2,Positive,20.988146573525956,105.84704865383073
67812ec1514dba6089ed925e,Bánh Mì Phố - Hàng Mã,Món Việt,"61E Hàng Mã, P. Hàng Mã, Quận Hoàn Kiếm, Hà Nội",25.000đ - 50.000đ,06:00 - 23:00,8.18,Positive,,
67812ec1514dba6089ed90ec,Cơm Đảo Bếp Nàng Sen,Món Việt,"49 Ngõ 604 Ngọc Thụy, P. Ngọc Thụy, Quận Long Biên, Hà Nội",30.000đ - 45.000đ,09:00 - 21:00,8.18,Positive,21.064516651054223,105.87354590937535
67812ec1514dba6089ed920c,Lê Lan - Bánh Đa Cua Gia Truyền,Món Việt,"115 B16 Lương Định Của, P. Kim Liên, Quận Đống Đa, Hà Nội",25.000đ - 50.000đ,07:00 - 13:30,8.18,Positive,,
67812ec1514dba6089ed9214,Lẩu Cá Kèo & Lẩu Mắm Cần Thơ - Giải Phóng,Miền Tây,"188 Ngõ 533 Giải Phóng, P. Giáp Bát, Quận Hoàng Mai, Hà Nội",70.000đ - 150.000đ,10:00 - 23:00,8.16,Positive,,
67812ec1514dba6089ed9170,Bún Chả Phố Cổ Ngọc Dung,Món Việt,"Ki Ốt 6, Nhà 8, Ngõ Tự Do, P. Đồng Tâm, Quận Hai Bà Trưng, Hà Nội",15.000đ - 25.000đ,07:00 - 22:00,8.16,Positive,,
67812ec1514dba6089ed92fb,Quán La Cà 1 - 30 Tháng 4,Món Việt,"652 Đường 30 Tháng 4, Tp. Vũng Tàu, Vũng Tàu",25.000đ - 299.000đ,15:30 - 23:30,8.158653846153847,Positive,10.420825024015217,107.15297398848799
67812ec1514dba6089ed9485,Nem Nướng Nam An - Thống Nhất Mới,Món Việt,"452 Thống Nhất Mới, P. 8, Tp. Vũng Tàu, Vũng Tàu",25.000đ - 70.000đ,09:00 - 22:00,8.148791208791208,Positive,10.358337388114805,107.09016656102958
67812ec1514dba6089ed9347,Sushi Iko - Phan Trung,Món Nhật,"62 Phan Trung, Khu Phố 7, P. Tân Tiến, Thành Phố Biên Hòa, Đồng Nai",5.000đ - 100.000đ,11:00 - 22:00,8.125961538461539,Positive,,
67812ec1514dba6089ed92ff,Dìn Ký - Khu Du Lịch Xanh Lái Thiêu - Cầu Ngang,Món Việt,"2/94 Bình Thuận, Bình Nhâm, Thị Xã Thuận An, Bình Dương",50.000đ - 385.000đ,09:00 - 22:30,8.125384615384615,Positive,,
67812ec1514dba6089ed9184,Bia Khánh Râu - Lương Ngọc Quyến,Món Việt,"20 Lương Ngọc Quyến, Quận Hoàn Kiếm, Hà Nội",35.000đ - 200.000đ,08:00 - 00:30,8.12,Positive,21.034856400000002,105.85327365
67812ec1514dba6089ed91c1,Khoai Lang Mật Đà Lạt Nướng - Shop Online,Món Việt,"A903 Toà M3 - M4, 91 Nguyễn Chí Thanh, Quận Ba Đình, Hà Nội",70.000đ - 100.000đ,09:00 - 20:00,8.12,Positive,,
67812ec1514dba6089ed9153,Nem Rán Bà Cụ - Cổng Trường Thành Công,Món Việt,"Cạnh Cổng THCS Thành Công, D7 TT Thành Công, Quận Ba Đình, Hà Nội",5.000đ - 10.000đ,14:00 - 18:00,8.12,Positive,,
67812ec1514dba6089ed9344,Bánh Mì Chảo Tân Mai,Món Việt,"220/11 Phạm Văn Thuận, KP. 8, P. Tam Hiệp, Thành Phố Biên Hòa, Đồng Nai",15.000đ - 30.000đ,06:00 - 11:00,8.118461538461538,Positive,,
67812ec1514dba6089ed93b9,Bún Mắm Miền Tây - Cách Mạng Tháng 8,Món Việt,"262/4A Cách Mạng Tháng 8, P. 10, Quận 3, TP. HCM",45.000đ - 60.000đ,11:00 - 22:00,8.115384615384615,Positive,,
67812ec1514dba6089ed9305,Quán Chú Cuội - Các Món Nướng,Món Việt,"Đường GS7, KP Tây B, X. Đông Hòa, Thị Xã Dĩ An, Bình Dương",39.000đ - 159.000đ,16:30 - 00:00,8.115384615384615,Positive,,
67812ec1514dba6089ed939b,Gà Tần Đại Bình,Món Việt,"1 Bạch Đằng, P. 2, Quận Tân Bình, TP. HCM",20.000đ - 250.000đ,06:30 - 22:30,8.115384615384615,Positive,10.8143773,106.6702289
67812ec1514dba6089ed92d2,BonPas Bakery & Cafe - Điện Biên Phủ,Món Việt,"143 Điện Biên Phủ, P. Chính Gián, Quận Thanh Khê, Đà Nẵng",10.000đ - 200.000đ,06:00 - 22:00,8.103653846153847,Positive,16.0653561,108.1986507
67812ec1514dba6089ed9252,"Dũng - Phở Bò, Phở Xào, Cơm Rang",Món Việt,"593 Minh Khai, Quận Hai Bà Trưng, Hà Nội",25.000đ - 40.000đ,06:00 - 22:00,8.1,Positive,20.9962306,105.857312
67812ec1514dba6089ed9126,Bún Dọc Mùng - Nguyễn Chế Nghĩa,Món Việt,"15 Nguyễn Chế Nghĩa, P. Hàng Bài, Quận Hoàn Kiếm, Hà Nội",30.000đ - 50.000đ,06:30 - 13:30,8.1,Positive,21.020060495470272,105.85293112895191
67812ec1514dba6089ed9294,"Highlands Coffee - Trà, Cà Phê & Bánh - 543 Kim Mã",Món Việt,"543 - 545 Kim Mã, P. Ngọc Khánh, Quận Ba Đình, Hà Nội",19.000đ - 59.000đ,07:00 - 23:00,8.1,Positive,21.029774479694694,105.80935632041644
67812ec1514dba6089ed9328,Cake House - Mậu Thân,Món Việt,"76 Nguyễn Văn Trỗi, P. Xuân Khánh, Quận Ninh Kiều, Cần Thơ",10.000đ - 30.000đ,11:00 - 18:00,8.094615384615384,Positive,10.036898,105.77015185256934
67812ec1514dba6089ed9460,Trà Sữa Green Tea,Món Việt,"1 Trường Chinh, P. Xuân Phú, Tp. Huế, Huế",15.000đ - 30.000đ,08:00 - 22:00,8.078313609467457,Positive,16.460910091834982,107.60382180471967
67812ec1514dba6089ed9407,"Al Fresco's - Pizza, Mỳ Ý, Sườn, Steak Bò Bít Tết - Nguyễn Thị Nghĩa","Món Âu, Mexico","16 Nguyễn Thị Nghĩa, P. Bến Thành, Quận 1, TP. HCM",80.000đ - 695.000đ,10:00 - 22:00,8.076153846153847,Positive,10.770780851449523,106.69370735920396
67812ec1514dba6089ed9480,Bánh Canh Cua - Lê Lai,Món Việt,"116 Lê Lai, P. 3, Tp. Vũng Tàu, Vũng Tàu",40.000đ - 45.000đ,15:00 - 21:00,8.070454545454545,Positive,,
67812ec1514dba6089ed9146,Tanka Quán - Chân Gà Nướng & Cánh Gà Nướng - Đê La Thành,Món Việt,"683 Đê La Thành, P. Thành Công, Quận Ba Đình, Hà Nội",10.000đ - 50.000đ,18:00 - 23:59,8.06,Positive,21.02410581224079,105.81417092000167
67812ec1514dba6089ed93ab,Ăn Vặt Q7 - Bánh Tráng Trộn - Huỳnh Tấn Phát,Món Miền Nam,"308/66 Huỳnh Tấn Phát, P. Tân Thuận Tây, Quận 7, TP. HCM",Đang cập nhật,08:00 - 21:00,8.057692307692308,Positive,10.75373963977308,106.72834094337205
67812ec1514dba6089ed93b4,Yum Yum - Chè Khoai Dẻo - Shop Online,Món Việt,"106 Chung Cư Trần Văn Kiểu, P. 14 (Gần Lẩu Cá Cô Thư, Ngay Lối Vào Thang Bộ Chung Cư), Quận 10, TP. HCM",25.000đ - 35.000đ,10:00 - 21:00,8.057307692307692,Positive,,
67812ec1514dba6089ed93d4,Starbucks Coffee - New World,"Mỹ, Món Âu","Góc Phạm Hồng Thái & Nguyễn Thị Nghĩa, 76 Đ. Nguyễn Thị Nghĩa, Quận 1, TP. HCM",50.000đ - 220.000đ,07:00 - 23:59,8.056923076923077,Positive,,
67812ec1514dba6089ed92c2,Gà Song Phụng - Gà Không Lối Thoát & Gà Bó Xôi,Món Việt,"46 Đường Số 20, P. Bình Hưng Hòa, Quận Bình Tân, TP. HCM",20.000đ - 40.000đ,10:00 - 21:00,8.055384615384614,Positive,10.820165221693898,106.60904106873444
67812ec1514dba6089ed92cc,"Thịt Xiên Nướng, Sữa Đậu & Đồ Ăn Vặt - Láng Hạ",Món Việt,"101k1 Ngõ 12 Láng Hạ, P. Thành Công, Quận Ba Đình, Hà Nội",5.000đ - 15.000đ,15:30 - 19:00,8.048076923076923,Positive,21.020538594993397,105.81702934747086
67812ec1514dba6089ed9318,Gỏi Cuốn Cô Ba Bình Dương,Món Việt,"335 Huỳnh Văn Lũy, P. Phú Lợi, Thành Phố Thủ Dầu Một, Bình Dương",20.000đ - 25.000đ,10:30 - 20:00,8.048076923076923,Positive,11.007415744425506,106.67632543488128
67812ec1514dba6089ed924b,Phố Ngon 37 - Indochina Plaza,Món Việt,"Tầng 5, IPH, 239 Xuân Thủy, P. Dịch Vọng Hậu, Quận Cầu Giấy, Hà Nội",45.000đ - 66.000đ,09:00 - 22:00,8.04,Positive,,
67812ec1514dba6089ed92f5,Hủ Tiếu Nam Vang Chị Tư,Món Việt,"152 Hoàng Hoa Thám, Tp. Vũng Tàu, Vũng Tàu",20.000đ - 44.000đ,09:00 - 22:00,8.034615384615385,Positive,10.338998704176655,107.0847514140628
67812ec1514dba6089ed92c1,Domino’s Pizza - Hòa Bình,Món Việt,"48 Hòa Bình, P. 5, Quận 11, TP. HCM",49.000đ - 199.000đ,10:00 - 22:00,8.031153846153845,Positive,10.768434395126066,106.6390477096057
67812ec1514dba6089ed9462,LAM Cafe,Món Việt,"38 Trần Cao Vân, P. Phú Hội, Tp. Huế, Huế",12.000đ - 35.000đ,07:00 - 22:00,8.021909814323607,Positive,16.4677329,107.5938163
67812ec1514dba6089ed9408,Yoshinoya Vietnam,Món Nhật,"Tầng 2, Lầu 2, 13 Lý Tự Trọng, P. Bến Nghé, Quận 1, TP. HCM",36.000đ - 200.000đ,10:00 - 21:00,8.007884615384615,Positive,,
67812ec1514dba6089ed9415,Gỏi Cuốn Cô Loan,Món Việt,"57/3 Đội Cung, P. 11, Quận 11, TP. HCM",5.000đ - 7.000đ,12:00 - 19:00,8.0,Positive,10.765208962450991,106.64768302007873
67812ec1514dba6089ed920f,"Mai - Phở Bò, Bún Cá & Bún Riêu",Món Việt,"139 Đại La, Quận Hai Bà Trưng, Hà Nội",25.000đ - 50.000đ,05:30 - 21:00,8.0,Positive,,
67812ec1514dba6089ed9207,"Highlands Coffee - Trà, Cà Phê & Bánh - VH Smart City",empty,"01SH05A, S2.05-Z29M.1 Vinhome Smart City, P. Tây Mỗ, Quận Nam Từ Liêm, Hà Nội",19.000đ - 65.000đ,07:00 - 22:00,8.0,Positive,,
67812ec1514dba6089ed916f,Nét Huế - Vinhomes Ocean Park,Món Việt,"L4 - 02 Vinhomes Ocean Park, Xã Đa Tốn, Huyện Gia Lâm, Hà Nội",35.000đ - 500.000đ,10:00 - 21:15,8.0,Positive,,
67812ec1514dba6089ed9280,Tiệm Bà Bắc - Xôi Sườn Cay,Món Việt,"87 Nguyễn Phong Sắc, P. Dịch Vọng Hậu, Quận Cầu Giấy, Hà Nội",10.000đ - 30.000đ,08:00 - 22:00,8.0,Positive,21.03820986558001,105.7902901872582
67812ec1514dba6089ed9139,Tacos Fresh And More - Trúc Bạch,Quốc tế,"45 Trúc Bạch, P. Trúc Bạch, Quận Ba Đình, Hà Nội",30.000đ - 80.000đ,06:00 - 23:00,8.0,Positive,21.048212749337978,105.84092818754755
67812ec1514dba6089ed91be,Nộm 76 - Nộm & Các Món Ăn Vặt,Món Việt,"85 Phố 8/3, P. Quỳnh Mai, Quận Hai Bà Trưng, Hà Nội",5.000đ - 15.000đ,14:00 - 20:00,8.0,Positive,20.99968679099317,105.85875680702479
67812ec1514dba6089ed9422,Mì Trộn Măm Mỳ,Món Việt,"55 Đường Số 4, P. 4, Quận 3, TP. HCM",6.000đ - 58.000đ,10:30 - 20:30,7.994615384615384,Positive,,
67812ec1514dba6089ed92d4,Dừa Bến Tre 190 - Dừa - Bạch Đằng,Món Miền Trung,"190 Đà Nẵng, P. Phước Ninh, Quận Hải Châu, Đà Nẵng",12.000đ - 45.000đ,09:00 - 22:00,7.987692307692307,Positive,16.0649896,108.2191791
67812ec1514dba6089ed9416,Sinh Tố Phúc Long,Món Việt,"9/1 Phạm Văn Hai, P. 1, Quận Tân Bình, TP. HCM",10.000đ - 35.000đ,10:00 - 23:59,7.981538461538461,Positive,10.796011337826828,106.66420478455595
67812ec1514dba6089ed9493,KATINAT - Nguyễn Sơn,empty,"35 Nguyễn Sơn, P. Tây Thạnh, Quận Tân Phú, TP. HCM",30.000đ - 100.000đ,empty,7.980769230769231,Positive,,
67812ec1514dba6089ed930d,Chè Bưởi Cần Thơ,Món Việt,"5 - 6 Trần Phú, P. Phú Cường, Thành Phố Thủ Dầu Một, Bình Dương",10.000đ - 30.000đ,15:00 - 22:00,7.980769230769231,Positive,10.973511870570725,106.66511565376636
67812ec1514dba6089ed9489,Bún Cá Châu Đốc Hường Thịnh - Nam Kỳ Khởi Nghĩa,empty,"144/7 Nam Kỳ Khởi Nghĩa, P. Thắng Tam, Tp. Vũng Tàu, Vũng Tàu",45.000đ - 300.000đ,07:00 - 20:00,7.980769230769231,Positive,10.347111354727556,107.08457558217162
67812ec1514dba6089ed9343,Bánh Xèo 352 Since 1994 - Võ Thị Sáu,Món Việt,"46 Võ Thị Sáu, P. Thống Nhất, Thành Phố Biên Hòa, Đồng Nai",25.000đ - 50.000đ,10:00 - 22:00,7.980769230769231,Positive,10.951852406740208,106.84223816421303
67812ec1514dba6089ed9458,Tiệm Bánh Mì Quang Trung,Món Việt,"132 Trường Chinh, P. An Đông, Tp. Huế, Huế",2.000đ - 12.000đ,06:00 - 22:00,7.980769230769231,Positive,16.460910091834982,107.60382180471967
67812ec1514dba6089ed9317,Bánh Cuốn Nóng & Bún Chả Hà Nội,Món Việt,"B10/8 Khu Dân Cư Thuận Giao, P. Thuận Giao, Thị Xã Thuận An, Bình Dương",10.000đ - 20.000đ,09:00 - 21:00,7.980769230769231,Positive,,
67812ec1514dba6089ed92f7,Bằng Lăng Quán - Gà Nướng & Cá Trê Nướng,Món Miền Nam,"Thôn 4 - Xã Long Sơn, Huyện Long Thành, Vũng Tàu",70.000đ - 180.000đ,10:00 - 00:00,7.980355029585799,Positive,10.4402718,107.1365582
67812ec1514dba6089ed91b0,Nhất Cháo - Nguyễn Khánh Toàn,empty,"165 Nguyễn Khánh Toàn, P. Quan Hoa, Quận Cầu Giấy, Hà Nội",30.000đ - 300.000đ,00:01 - 03:00 | 06:30 - 23:59,7.98,Positive,21.03593688114043,105.80327850773612
67812ec1514dba6089ed9338,Bus Cafe - 189 Đồng Khởi,Mỹ,"189 Đồng Khởi, P. Tam Hiệp, Thành Phố Biên Hòa, Đồng Nai",20.000đ - 50.000đ,09:00 - 22:00,7.98,Positive,10.957450192300437,106.85918554739116
67812ec1514dba6089ed9479,Trà Sữa Sơn Quang - Nguyễn Văn Cừ,Món Việt,"02 Nguyễn Văn Cừ, P. 9, Tp. Vũng Tàu, Vũng Tàu",5.000đ - 68.000đ,07:00 - 22:00,7.977692307692306,Positive,10.367596526088175,107.09011934744795
67812ec1514dba6089ed91e4,Bếp Nhà Bun - Chân Gà Sả Ớt Online - Khâm Thiên,Món Việt,"5 Ngõ 261 Khâm Thiên, P. Thổ Quan, Quận Đống Đa, Hà Nội",90.000đ - 100.000đ,09:00 - 23:00,7.96,Positive,,
67812ec1514dba6089ed93eb,Lion City - Lê Anh Xuân,Singapore,"42 Lê Anh Xuân, P. Bến Thành, Quận 1, TP. HCM",100.000đ - 275.000đ,00:01 - 03:00 | 08:00 - 23:59,7.957692307692307,Positive,10.771197350000001,106.69549484999999
67812ec1514dba6089ed9348,Sushi 81,Món Nhật,"49 Phan Trung, P. Tân Mai, Thành Phố Biên Hòa, Đồng Nai",25.000đ - 500.000đ,10:00 - 23:00,7.93826923076923,Positive,10.957772299999998,106.84248310000001
67812ec1514dba6089ed9363,Hoàng Ty Group - Đặc Sản Trảng Bàng - Mạc Đĩnh Chi,Miền Đông,"38 Mạc Đĩnh Chi, P. Đa Kao, Quận 1, TP. HCM",8.000đ - 374.000đ,10:00 - 22:00,7.932400530503979,Positive,10.785046787547294,106.69917574786005
67812ec1514dba6089ed932c,Cheezy Kitchen - Pizza & Burger - Đuờng Số 2,empty,"142 Đuờng Số 2 (Kế Hớt Tóc Nam Lâm Duy), KDC Thới Nhựt, P. An Khánh, Quận Ninh Kiều, Cần Thơ",10.000đ - 199.000đ,07:00 - 23:00,7.931153846153847,Positive,,
67812ec1514dba6089ed932a,Quán Chay Oanh - Đề Thám,Món Việt,"102 Đề Thám, P. Tân An, Quận Ninh Kiều, Cần Thơ",15.000đ - 30.000đ,06:00 - 22:00,7.92989010989011,Positive,,
67812ec1514dba6089ed91e7,Mì Vằn Thắn - Trương Định,Món Việt,"146 Trương Định, P. Trương Định, Quận Hai Bà Trưng, Hà Nội",30.000đ - 35.000đ,15:00 - 22:00,7.92,Positive,20.9932903,105.8495198
67812ec1514dba6089ed91c6,Bún Chả Que Tre - Giảng Võ,Hà Nội,"116D5 Giảng Võ, P. Giảng Võ, Quận Ba Đình, Hà Nội",30.000đ - 50.000đ,10:00 - 14:00,7.92,Positive,21.0267617,105.8212835
67812ec1514dba6089ed93a6,Rita Võ Cafe - Trần Não,Món Việt,"1 Trần Não, Tp. Thủ Đức, TP. HCM",29.000đ - 77.000đ,07:00 - 21:30,7.913461538461538,Positive,10.775744116884386,106.72747290529982
67812ec1514dba6089ed9287,Starbucks Coffee - Press Club,Mỹ,"59A Lý Thái Tổ (12 Lý Đạo Thành), Quận Hoàn Kiếm, Hà Nội",60.000đ - 150.000đ,06:30 - 22:00,7.9,Positive,,
67812ec1514dba6089ed90db,Phở Bò Tứ Hải - Ngõ Văn Chương,Món Việt,"308 Ngõ Văn Chương, Quận Đống Đa, Hà Nội",30.000đ - 50.000đ,06:00 - 21:00,7.9,Positive,21.0200224,105.837586
67812ec1514dba6089ed9227,Quán Bún Ốc Cây Sung,Món Việt,"18 Ngõ 9 Hoàng Ngọc Phách (Ngõ 36 Láng Hạ), P. Láng Hạ, Quận Đống Đa, Hà Nội",20.000đ - 50.000đ,07:00 - 19:00,7.9,Positive,,
67812ec1514dba6089ed9414,Lotteria - Tân Thuận,Món Hàn,"336 Huỳnh Tấn Phát, Quận 7, TP. HCM",30.000đ - 150.000đ,08:00 - 22:00,7.895384615384616,Positive,10.75373963977308,106.72834094337205
67812ec1514dba6089ed9457,Hoàng Lộc - Nhậu Bình Dân - Lê Minh,Món Việt,"38 Lê Minh, P. An Đông, Tp. Huế, Huế",25.000đ - 170.000đ,10:30 - 22:00,7.894615384615385,Positive,16.460155159181934,107.60487554717682
67812ec1514dba6089ed90ff,Daebak - Thịt Nướng Hàn Quốc,Món Hàn,"14 Lý Nam Đế, Quận Hoàn Kiếm, Hà Nội",50.000đ - 185.000đ,10:00 - 22:30,7.88,Positive,21.0372165,105.845363
67812ec1514dba6089ed926c,Hưng Phát - Tiệm Mì & Hủ Tiếu,Món Việt,"7 Điện Biên Phủ, Quận Ba Đình, Hà Nội",35.000đ - 70.000đ,06:00 - 14:00 | 17:00 - 20:30,7.88,Positive,21.0293114,105.8423394
67812ec1514dba6089ed9212,Bún Riêu Hải Béo - Hàng Chĩnh,Món Việt,"15 Hàng Chĩnh, Quận Hoàn Kiếm, Hà Nội",20.000đ - 40.000đ,07:00 - 20:30,7.88,Positive,21.035581399999998,105.8538039
67812ec1514dba6089ed9475,Topokki One BBQ,Món Việt,"5/175 Nhật Lệ, P. Thuận Thành, Tp. Huế, Huế",15.000đ - 110.000đ,16:00 - 22:00,7.8625,Positive,16.477586894642474,107.58081586444746
67812ec1514dba6089ed9128,Chang Hi - Chè Thốt Nốt Dừa Dầm Ngon Nhất Hà Nội Online - Xã Đàn,Món Việt,"113 Xã Đàn, P. Phương Liên, Quận Đống Đa, Hà Nội",35.000đ - 70.000đ,08:00 - 13:30 | 14:00 - 18:00,7.86,Positive,21.011443320307862,105.8362702111232
67812ec1514dba6089ed937e,Chè Vỉa Hè Võ Văn Tần - Chè Cô Điệp,Món Việt,"Vỉa Hè 241 Võ Văn Tần, Quận 3, TP. HCM",5.000đ - 20.000đ,17:30 - 21:00,7.852307692307692,Positive,,
67812ec1514dba6089ed9421,Tiệm Ăn Dì Út - Nem Nướng Ninh Hòa & Bánh Hỏi Thịt Nướng - Nguyễn Gia Trí,empty,"62 Nguyễn Gia Trí, P. 25, Quận Bình Thạnh, TP. HCM",20.000đ - 100.000đ,10:00 - 21:00,7.846153846153847,Positive,10.808241505773166,106.71654915482831
67812ec1514dba6089ed937c,Mì Xào & Cơm Chiên - Cây Điệp,Món Việt,"157 Đường Cây Điệp, P. Đa Kao, Quận 1, TP. HCM",10.000đ - 20.000đ,09:45 - 20:00,7.84,Positive,,
67812ec1514dba6089ed9241,Miến Lươn Phúc - Lò Đúc,Món Việt,"30 Lò Đúc, P. Phạm Đình Hổ, Quận Hai Bà Trưng, Hà Nội",30.000đ - 35.000đ,09:00 - 21:00,7.84,Positive,21.015812046636015,105.85643355834097
67812ec1514dba6089ed945e,Bánh Mì Gia Truyền Đông Ba,Món Huế,"45 Ngô Quyền, P. Vĩnh Ninh, Tp. Huế, Huế",10.000đ - 20.000đ,07:00 - 11:00 | 15:00 - 19:30,7.836923076923076,Positive,16.46060641283291,107.58723527755554
67812ec1514dba6089ed9486,Loan - Cháo Gỏi Gà,Món Việt,"60 Đồ Chiểu, P. 3, Tp. Vũng Tàu, Vũng Tàu",40.000đ - 66.000đ,00:01 - 01:00 | 11:00 - 23:59,7.834807692307692,Positive,10.350113141775998,107.07965166334144
67812ec1514dba6089ed92de,Tràng An - Phở Gà & Cháo Lòng,Món Bắc,"182 Phan Xích Long, P. 7, Quận Phú Nhuận, TP. HCM",30.000đ - 35.000đ,06:30 - 18:00,7.824615384615384,Positive,10.7973252,106.6912979
67812ec1514dba6089ed93e8,Korea Quán - Ẩm Thực Hàn Quốc,Món Hàn,"26/10B Trần Văn Mười, Xã Xuân Thới Đông, Huyện Hóc Môn, TP. HCM",20.000đ - 100.000đ,09:00 - 23:59,7.822115384615384,Positive,10.86913070178799,106.58943387079273
67812ec1514dba6089ed9268,Khang - Ẩm Thực Nhật Bản,Món Nhật,"322 Bà Triệu, P. Lê Đại Hành, Quận Hai Bà Trưng, Hà Nội",150.000đ - 385.000đ,11:00 - 14:00 | 17:30 - 22:00,7.82,Positive,21.009645698866798,105.84902294047207
67812ec1514dba6089ed92ca,Bánh Tráng Bé My - Quang Trung,Món Việt,"33 Quang Trung, P. Trần Hưng Đạo, Quận Hoàn Kiếm, Hà Nội",20.000đ - 25.000đ,15:00 - 21:00,7.813461538461538,Positive,21.0228752435514,105.84890225726292
67812ec1514dba6089ed9427,Trà Sữa Hồng Gấm,Món Việt,"242/6A Bà Hom, P. 13, Quận 6, TP. HCM",15.000đ - 40.000đ,07:00 - 22:00,7.801153846153847,Positive,10.754301611436544,106.63298474252774
67812ec1514dba6089ed93c0,WP'S Waffle Place - Bánh Tổ Ong Nướng - Tôn Thất Thuyết,Món Hàn,"66/15/1 Tôn Thất Thuyết, P. 16, Quận 4, TP. HCM",30.000đ - 55.000đ,09:00 - 21:30,7.80076923076923,Positive,10.755866080081983,106.71170665128516
67812ec1514dba6089ed9191,Hương Trang - Bánh Ngọt,Món Việt,"11 Thanh Hà, Quận Hoàn Kiếm, Hà Nội",15.000đ - 200.000đ,07:30 - 21:30,7.8,Positive,21.0366359,105.8495982
67812ec1514dba6089ed9282,Phở Hà Nội,Hà Nội,"129 Hoàng Văn Thái, P. Khương Trung, Quận Thanh Xuân, Hà Nội",35.000đ - 55.000đ,05:30 - 14:30 | 16:00 - 21:30,7.8,Positive,20.995227177270962,105.82876470079908
67812ec1514dba6089ed9100,Quán Cơm Kim Nhung,Món Việt,"295 Phố Vọng, Quận Thanh Xuân, Hà Nội",30.000đ - 66.000đ,09:00 - 13:30 | 17:00 - 21:00,7.8,Positive,20.995628102677525,105.84283073383523
67812ec1514dba6089ed935c,Cơm Tấm Phúc Lộc Thọ - Nguyễn Thị Thập,Món Việt,"223 Nguyễn Thị Thập, P. Tân Phú, Quận 7, TP. HCM",32.000đ - 139.000đ,06:00 - 22:00,7.7942307692307695,Positive,10.7379886,106.72152735
67812ec1514dba6089ed933c,Min Kitchen - Quán Ăn Hàn Quốc,Món Hàn,"191 Phan Trung, P. Tân Mai, Thành Phố Biên Hòa, Đồng Nai",8.000đ - 119.000đ,09:00 - 22:00,7.7913461538461535,Positive,10.957772299999998,106.84248310000001
67812ec1514dba6089ed930a,Cháo Ếch Cay Cay,Món Việt,"287 Thích Quảng Đức, P. Phú Cường, Thành Phố Thủ Dầu Một, Bình Dương",20.000đ - 50.000đ,10:00 - 22:00,7.791153846153847,Positive,10.978362054230889,106.65817664153613
67812ec1514dba6089ed935a,Bùi Văn Ngọ Coffee - Tên Lửa,Món Việt,"269 Tên Lửa, P. Bình Trị Đông B, Quận Bình Tân, TP. HCM",15.000đ - 45.000đ,06:00 - 22:00,7.784807692307692,Positive,10.741414332831695,106.61437464905718
67812ec1514dba6089ed91fe,Bánh Cuốn & Gà Ác Tần - Đặng Tiến Đông,Món Việt,"83 Đặng Tiến Đông, Quận Đống Đa, Hà Nội",15.000đ - 30.000đ,07:00 - 22:00,7.78,Positive,21.017031312432753,105.81883683212438
67812ec1514dba6089ed9195,Phở Bò Phú Xuân,Món Việt,"36 Hàng Da, P. Hàng Bông, Quận Hoàn Kiếm, Hà Nội",20.000đ - 55.000đ,05:30 - 12:30,7.78,Positive,,
67812ec1514dba6089ed91bf,Bánh Giò - Dốc Hàng Than,Món Việt,"2 Dốc Hàng Than, Quận Ba Đình, Hà Nội",15.000đ - 35.000đ,15:00 - 18:00,7.78,Positive,,
67812ec1514dba6089ed92f1,Bún Riêu Sườn - Hạ Long,Món Bắc,"Dốc Hạ Long, Tp. Vũng Tàu, Vũng Tàu",20.000đ - 25.000đ,03:00 - 10:00,7.778846153846153,Positive,,
67812ec1514dba6089ed9324,Cơm Gà Hùng Ký,Món Việt,"17A Hòa Bình, P. Tân An, Quận Ninh Kiều, Cần Thơ",37.000đ - 70.000đ,07:00 - 22:00,7.773653846153846,Positive,10.032257186272213,105.7829449618218
67812ec1514dba6089ed9160,Trư Ký Hotpot - Lẩu Thái Tomyum & Lẩu Cháo Chim,Món Á,"63 Trần Nhân Tông, P. Nguyễn Du, Quận Hai Bà Trưng, Hà Nội",30.000đ - 100.000đ,10:30 - 22:00,7.76,Positive,21.016853545136037,105.85087808300358
67812ec1514dba6089ed9176,Chân Gà Bay Online,Món Việt,"15 Ngõ 182 Lương Thế Vinh, Quận Nam Từ Liêm, Hà Nội",15.000đ - 150.000đ,08:00 - 22:00,7.76,Positive,20.99092975,105.7963328
67812ec1514dba6089ed9354,Bún Đậu Bạch Câu,Món Việt,"46 Đường 783 Tạ Quang Bửu, P. 4, Quận 8, TP. HCM",22.002đ - 110.000đ,09:00 - 22:00,7.748918269230769,Positive,10.738080203451808,106.67307379180751
67812ec1514dba6089ed92c9,Sushila - Cơm & Mỳ Ramen - Kim Mã Thượng,Món Nhật,"37F Kim Mã Thượng, P. Cống Vị, Quận Ba Đình, Hà Nội",100.000đ - 500.000đ,09:00 - 14:00 | 17:00 - 22:00,7.73923076923077,Positive,21.036141452197235,105.81310607771522
67812ec1514dba6089ed93ba,Nhà Hàng Ngân Đình Sài Gòn,"Món Việt, Món Trung Hoa","52 - 54 - 56 Đồng Khởi, P. Bến Nghé, Quận 1, TP. HCM",200.000đ - 1.000.000đ,10:00 - 21:30,7.73826923076923,Positive,10.773944955874414,106.70537148654037
67812ec1514dba6089ed92b7,Bà Xã Vegan - Nhà Hàng Chay - Trương Định,Món Việt,"107K Trương Định, P. 6, Quận 3, TP. HCM",10.000đ - 195.000đ,07:15 - 21:45,7.735824175824176,Positive,,
67812ec1514dba6089ed948f,"Highlands Coffee - Trà, Cà Phê & Bánh - Trần Phú HP",Món Việt,"32 Trần Phú, P. Lương Khánh Thiện, Quận Ngô Quyền, Hải Phòng",9.000đ - 65.000đ,empty,7.733461538461539,Positive,,
67812ec1514dba6089ed9474,Xôi 7 Màu,Món Huế,"Cầu An Cựu, P. An Cựu, Tp. Huế, Huế",5.000đ - 10.000đ,18:00 - 22:00,7.731538461538461,Positive,,
67812ec1514dba6089ed931a,Vịt Nướng Lu 5 Vân - Chuông Tre,Món Việt,"82AChuông Tre, KP Nhi Đồng 2, P. Dĩ An, Thị Xã Dĩ An, Bình Dương",50.000đ - 150.000đ,07:00 - 22:00,7.725961538461538,Positive,,
67812ec1514dba6089ed93aa,Tiệm Cơm Linh Giang,Món Việt,"145/2 Dương Tử Giang, P.15, Quận 5, TP. HCM",20.000đ - 55.000đ,07:00 - 22:00,7.721538461538461,Positive,,
67812ec1514dba6089ed91b5,Twitter Beans Coffee - Đại Lộ Thăng Long,Ý,"Tầng 1, Tòa Nhà Thăng Long Number 1, Số 1 Đại Lộ Thăng Long, Quận Nam Từ Liêm, Hà Nội",28.000đ - 55.000đ,07:00 - 22:30,7.72,Positive,,
67812ec1514dba6089ed9323,Xôi Xá Xíu - Nguyễn Trãi,Món Việt,"138 Nguyễn Trãi, P. Cái Khế, Quận Ninh Kiều, Cần Thơ",10.000đ - 20.000đ,16:00 - 23:00,7.72,Positive,10.043777786361694,105.78167139214271
67812ec1514dba6089ed912b,Chè Mai Tiến - Giảng Võ,Món Bắc,"Tập Thể C5 Giảng Võ, Trần Huy Liệu, Quận Ba Đình, Hà Nội",15.000đ - 50.000đ,11:00 - 18:00,7.72,Positive,,
67812ec1514dba6089ed925c,Cô Bi - Bánh Mì Thịt Nướng Lạng Sơn,Món Việt,"4 Ngõ Lương Sử C, P. Văn Chương, Quận Đống Đa, Hà Nội",6.000đ - 30.000đ,07:00 - 23:00,7.72,Positive,21.025434952148036,105.83755729736079
67812ec1514dba6089ed911d,Meiwei - Trung Hoa Mỹ Vị - Big C Thăng Long,Món Á,"Tầng 1, Big C Thăng Long, 222 Trần Duy Hưng, Quận Cầu Giấy, Hà Nội",29.000đ - 699.000đ,10:00 - 22:00,7.72,Positive,,
67812ec1514dba6089ed93bd,"Highlands Coffee - Trà, Cà Phê & Bánh - Etown",Món Việt,"364 Cộng Hòa, P. 13, Quận Tân Bình, TP. HCM",9.000đ - 65.000đ,09:00 - 18:00,7.714615384615385,Positive,10.80185,106.6407242
67812ec1514dba6089ed9288,Starbucks Coffee - Bà Triệu,Mỹ,"314 Bà Triệu, Quận Hai Bà Trưng, Hà Nội",80.000đ - 150.000đ,07:00 - 23:00,7.7,Positive,21.012727557051992,105.84835348652774
67812ec1514dba6089ed90f2,Bún Cá Chấm Đệ Nhất - Phan Văn Trường,Món Việt,"34 Phan Văn Trường, P. Dịch Vọng Hậu, Quận Cầu Giấy, Hà Nội",35.000đ - 60.000đ,07:00 - 14:00 | 17:30 - 22:00,7.7,Positive,21.040422251975095,105.78612752395355
67812ec1514dba6089ed915e,Edo Coffee Shop - Ngọc Lâm,Món Việt,"22 Ngõ 298 Ngọc Lâm, Quận Long Biên, Hà Nội",15.000đ - 50.000đ,09:00 - 22:30,7.7,Positive,21.045824187704138,105.87393836574358
67812ec1514dba6089ed9151,Phở Hằng - Yên Phụ,Món Việt,"58 Yên Phụ, Quận Ba Đình, Hà Nội",20.000đ - 40.000đ,16:00 - 00:00,7.7,Positive,21.045269557784675,105.84564773573614
67812ec1514dba6089ed9444,Thanh My - Bún Bò Huế,Món Việt,"74 Trương Vĩnh Ký, Quận Tân Phú, TP. HCM",25.000đ - 40.000đ,06:00 - 21:00,7.697115384615384,Positive,10.79382209789587,106.63355731886877
67812ec1514dba6089ed92e3,Buffet Green Hotel - Thùy Vân,Món Việt,"147C Thuỳ vân, P. Thắng Tam, Tp. Vũng Tàu, Vũng Tàu",70.000đ - 180.000đ,08:00 - 23:30,7.688846153846155,Positive,10.33751565,107.09089794978607
67812ec1514dba6089ed934a,Cháo Ếch Singapore LION KING - Đồng Khởi,Món Việt,"257 Đồng Khởi, P. Tam Hiệp, Thành Phố Biên Hòa, Đồng Nai",40.000đ - 50.000đ,09:00 - 23:30,7.680562130177514,Positive,10.957450192300437,106.85918554739116
67812ec1514dba6089ed91a2,Quán Cô Mai - Nguyễn Biểu,Món Việt,"2 Nguyễn Biểu, Quận Ba Đình, Hà Nội",30.000đ - 100.000đ,17:00 - 22:00,7.68,Positive,21.041939373573555,105.84010424638787
67812ec1514dba6089ed937a,Kaya Sushi,Món Nhật,"116 Man Thiện, P. Tăng Nhơn Phú A, Quận 9, TP. HCM",10.000đ - 225.000đ,11:00 - 22:00,7.68,Positive,,
67812ec1514dba6089ed90de,Tào Phớ Nè - Hòa Bình 3,Món Việt,"Số 26 Ngõ Hòa Bình 3, P. Minh Khai, Quận Hai Bà Trưng, Hà Nội",8.000đ - 40.000đ,09:00 - 22:30,7.68,Positive,20.99642364479659,105.8530252637589
67812ec1514dba6089ed9295,Starbucks Coffee - Nhà Thờ,Quốc tế,"Asia Tower, 6 Nhà Thờ, P. Hàng Trống, Quận Hoàn Kiếm, Hà Nội",60.000đ - 150.000đ,07:00 - 23:00,7.68,Positive,,
67812ec1514dba6089ed9331,Trà Sữa Chin - Quang Trung,Món Việt,"83A Quang Trung, P. An Lạc, Quận Ninh Kiều, Cần Thơ",15.000đ - 30.000đ,08:30 - 21:30,7.676730769230769,Positive,,
67812ec1514dba6089ed940d,Song Hỷ - Bún Chả Hà Nội Gia Truyền,Hà Nội,"575 Điện Biên Phủ, P. 25, Quận Bình Thạnh, TP. HCM",30.000đ - 38.000đ,08:00 - 21:00,7.663461538461538,Positive,10.80045098540988,106.71694806146623
67812ec1514dba6089ed930b,Tài Lộc - Bún Mắm,Món Việt,"Cách Mạng Tháng 8, P. Phú Cường, Thành Phố Thủ Dầu Một, Bình Dương",20.000đ - 30.000đ,09:00 - 21:00,7.661538461538462,Positive,10.98251814506533,106.65302151309567
67812ec1514dba6089ed949b,Nắng - Nem Nướng Nha Trang - Homyland Riverside,Món Miền Trung,"Tầng 3 Chung Cư Homyland Riverside, 403A Nguyễn Duy Trinh, P. Bình Trưng Tây, Tp. Thủ Đức, TP. HCM",8.000đ - 129.000đ,empty,7.66,Positive,,
67812ec1514dba6089ed91bd,Starbucks Coffee - The Loop,Mỹ,"Tầng 1, Ô Số 124, Tầng 01, Trung Tâm Thương Mại IPH, 241 Xuân Thủy, P. Dịch Vọng Hậu, Quận Cầu Giấy, Hà Nội",50.000đ - 100.000đ,06:30 - 22:30,7.66,Positive,,
67812ec1514dba6089ed91c9,Bonchon Chicken - Nhà Thờ,Món Hàn,"12 Nhà Thờ, P. Hàng Trống, Quận Hoàn Kiếm, Hà Nội",100.000đ - 300.000đ,10:00 - 22:00,7.66,Positive,21.0291568,105.8500237
67812ec1514dba6089ed9231,Anh Hòa - Bún Ốc,Món Việt,"14 Ngõ 111 Yên Lãng, Quận Đống Đa, Hà Nội",20.000đ - 35.000đ,06:00 - 14:30,7.66,Positive,,
67812ec1514dba6089ed919a,San Fu Lou - Ẩm Thực Quảng Đông - Vincom Liễu Giai,Món Trung Hoa,"Tầng 2, Vincom Center, 29 Liễu Giai, P. Ngọc Khánh, Quận Ba Đình, Hà Nội",45.000đ - 250.000đ,10:00 - 23:00,7.66,Positive,,
67812ec1514dba6089ed941b,Chè Nghĩa,Món Việt,"861 Hậu Giang, P. 11, Quận 6, TP. HCM",10.000đ - 30.000đ,10:00 - 22:00,7.649755244755245,Positive,10.748129853095671,106.63551429826393
67812ec1514dba6089ed90f9,Xôi Bự - Lò Đúc,Món Việt,"61 Lò Đúc, Quận Hai Bà Trưng, Hà Nội",10.000đ - 30.000đ,06:30 - 21:00,7.64,Positive,21.015812046636015,105.85643355834097
67812ec1514dba6089ed91b9,Bún Chả Cô An - Khâm Thiên,Món Việt,"Ngách 1/33 Ngõ 1 Khâm Thiên, P. Trung Phụng, Quận Đống Đa, Hà Nội",20.000đ - 30.000đ,09:00 - 14:00,7.64,Positive,,
67812ec1514dba6089ed932b,Lẩu Bò 999,Món Việt,"Nguyễn Thị Minh Khai, P. Xuân Khánh, Quận Ninh Kiều, Cần Thơ",50.000đ - 200.000đ,07:00 - 22:00,7.634423076923076,Positive,10.025387049999999,105.7771556
67812ec1514dba6089ed92b3,Quán Cơm Chay Thanh Lương,Món Việt,"545A Đường 3 Tháng 2, P. 8, Quận 10, TP. HCM",20.000đ - 50.000đ,empty,7.631414835164836,Positive,10.766673384832458,106.66528116388749
67812ec1514dba6089ed91f9,Bánh Bao - Ngõ Tôn Thất Thiệp,Món Việt,"5 Ngõ Tôn Thất Thiệp, Quận Ba Đình, Hà Nội",2.000đ - 8.000đ,07:00 - 21:00,7.62,Positive,21.03231505,105.84353295
67812ec1514dba6089ed9273,Bún Riêu Cua - Hàng Chuối,Món Việt,"31 Hàng Chuối, P. Phạm Đình Hổ, Quận Hai Bà Trưng, Hà Nội",20.000đ - 55.000đ,06:00 - 18:00,7.62,Positive,21.017605591414583,105.85705505800696
67812ec1514dba6089ed92dc,Cheese Coffee - Cộng Hòa,Món Việt,"43 Cộng Hòa, P. 4, Quận Tân Bình, TP. HCM",19.000đ - 68.000đ,08:00 - 17:00,7.609615384615385,Positive,10.801131860164006,106.65733223805593
67812ec1514dba6089ed9398,Starbucks Coffee - Hồng Hà,Mỹ,"2 Hồng Hà, P. 2, Quận Tân Bình, TP. HCM",75.000đ - 150.000đ,06:30 - 22:30,7.600607287449392,Positive,10.813173,106.6661048
67812ec1514dba6089ed9104,Trâu Ngon Quán - Hoàng Đạo Thúy,Món Việt,"Tầng 1, Tòa Nhà N04 UDIC Complex, Hoàng Đạo Thúy, Quận Cầu Giấy, Hà Nội",30.000đ - 300.000đ,09:00 - 22:00,7.6,Positive,,
67812ec1514dba6089ed9133,Bún Đậu Việt - Hàng Khay,Món Việt,"29 Ngõ 29 Hàng Khay, P. Tràng Tiền, Quận Hoàn Kiếm, Hà Nội",32.000đ - 249.000đ,08:00 - 21:00,7.6,Positive,,
67812ec1514dba6089ed921a,Phở Vịt Quay & Bánh Cuốn Cao Bằng - Ao Sen,Món Việt,"20 Ngõ 36 Ao Sen, P. Mộ Lao, Quận Hà Đông, Hà Nội",25.000đ - 50.000đ,07:00 - 23:00,7.6,Positive,,
67812ec1514dba6089ed91c0,Don Chicken - Chicken & Pub - Vũ Phạm Hàm,Món Hàn,"9 Vũ Phạm Hàm, P. Yên Hòa, Quận Cầu Giấy, Hà Nội",50.000đ - 300.000đ,11:00 - 22:30,7.6,Positive,21.018597749999998,105.79850616686915
67812ec1514dba6089ed90f6,Mơ - Bánh Ướt Ban Mê & Bánh Ướt Lòng Gà Đà Lạt - Nguyễn Khang,Món Miền Trung,"333 Nguyễn Khang, P. Yên Hòa, Quận Cầu Giấy, Hà Nội",Đang cập nhật,11:00 - 14:00 | 17:30 - 21:00,7.6,Positive,21.021713928139576,105.7997294097946
67812ec1514dba6089ed9122,Trâm Anh - Chè & Bánh Xèo,Món Việt,"11 Hoàng Văn Thụ, P. Phúc La, Quận Hà Đông, Hà Nội",15.000đ - 50.000đ,08:00 - 22:00,7.6,Positive,,
67812ec1514dba6089ed9123,Trâm Anh - Bánh Xèo & Chè,Món Việt,"11 Hoàng Văn Thụ, P. Nguyễn Trãi, Quận Hà Đông, Hà Nội",12.000đ - 50.000đ,13:00 - 19:00,7.6,Positive,,
67812ec1514dba6089ed926e,Starbucks Coffee - Vincom Metropolis,Món Việt,"Tầng 1, Tầng 1, Vincom Metropolis, Liễu Giai, P. Liễu Giai, Quận Ba Đình, Hà Nội",30.000đ - 60.000đ,10:00 - 22:00,7.6,Positive,,
67812ec1514dba6089ed9451,Cháo Bò Thanh Hải,Món Việt,"5/1 Kiệt 10 Võ Thị Sáu, P. Phú Hội, Tp. Huế, Huế",5.000đ - 20.000đ,11:00 - 17:30,7.6,Positive,,
67812ec1514dba6089ed9169,Bánh Cuốn Lạng Sơn - Phố Vọng,Tây Bắc,"232 Phố Vọng, P. Phương Liệt, Quận Thanh Xuân, Hà Nội",35.000đ - 50.000đ,06:00 - 12:30,7.6,Positive,20.995628102677525,105.84283073383523
67812ec1514dba6089ed9259,Quỳnh Nga - Chân Gà & Dạ Dày Nướng,Món Việt,"2 Lý Văn Phúc, P. Điện Biên, Quận Ba Đình, Hà Nội",50.000đ - 150.000đ,16:30 - 23:59,7.6,Positive,21.03071247879091,105.83186948697988
67812ec1514dba6089ed922f,Bánh Cuốn Bà Hoành - Hoàng Cầu Mới,Món Việt,"32 Hoàng Cầu Mới, Quận Đống Đa, Hà Nội",35.000đ - 70.000đ,06:00 - 20:00,7.6,Positive,,
67812ec1514dba6089ed932d,Bánh Xèo Khả Ngân - Nem Nướng,Món Việt,"84 Đường 22, Khu Dân Cư Thới Nhựt 1, P. An Khánh, Quận Ninh Kiều, Cần Thơ",22.000đ - 85.000đ,09:00 - 22:00,7.58687062937063,Positive,,
67812ec1514dba6089ed943a,"Highlands Coffee - Trà, Cà Phê & Bánh - Pearl Plaza",Món Việt,"561A Điện Biên Phủ, P. 25, Quận Bình Thạnh, TP. HCM",9.000đ - 65.000đ,07:00 - 22:00,7.578076923076923,Positive,10.80012475,106.71860165063052
67812ec1514dba6089ed946f,Cuốn - Bún Đậu Mắm Tôm,Món Việt,"247 Nguyễn Trãi, P. Tây Lộc, Tp. Huế, Huế",5.000đ - 50.000đ,10:00 - 22:00,7.576923076923077,Positive,16.48197085,107.56157555
67812ec1514dba6089ed92fd,Trà Sữa 9x,Món Việt,"Đường K, P. Dĩ An, Thị Xã Dĩ An, Bình Dương",10.000đ - 25.000đ,16:00 - 23:00,7.576923076923077,Positive,,
67812ec1514dba6089ed93bc,Quán Nem Dì Năm,Món Việt,"11 Bác Ái, P. Bình Thọ, Tp. Thủ Đức, TP. HCM",10.000đ - 60.000đ,07:00 - 21:00,7.575384615384615,Positive,10.846254458484996,106.76625495128151
67812ec1514dba6089ed9312,Sóc Sushi - Nguyễn Đình Chiểu,Món Á,"3 Nguyễn Đình Chiểu, P. Phú Cường, Thành Phố Thủ Dầu Một, Bình Dương",30.000đ - 100.000đ,16:00 - 21:00,7.573186813186813,Positive,10.980126096624133,106.65526100608825
67812ec1514dba6089ed936d,Quỳnh - Bún Đậu Mắm Tôm,Món Bắc,"110 Tô Vĩnh Diện, P. Linh Chiểu, Tp. Thủ Đức, TP. HCM",22.000đ - 110.000đ,10:00 - 22:00,7.56,Positive,10.853910258158919,106.76826339594228
67812ec1514dba6089ed912f,Nem Chua Rán - 36 Tạm Thương,Hà Nội,"36 Tạm Thương, P. Hàng Gai, Quận Hoàn Kiếm, Hà Nội",5.000đ - 55.000đ,08:30 - 23:00,7.56,Positive,21.031369343215125,105.84786997970166
67812ec1514dba6089ed91f7,Linh Chi Bánh Đa Trộn & Miến Trộn - Nguyễn Khánh Toàn,Món Bắc,"6 Ngõ 118 Nguyễn Khánh Toàn, P. Quan Hoa, Quận Cầu Giấy, Hà Nội",10.000đ - 25.000đ,07:00 - 20:00,7.56,Positive,21.038674083538325,105.80164101920538
67812ec1514dba6089ed92bd,Bánh Mì Bảy Quang,Món Việt,"7 Huỳnh Khương Ninh, P. Đa Kao, Quận 1, TP. HCM",20.000đ - 20.000đ,13:00 - 19:00,7.552884615384615,Positive,10.789776750493983,106.69597200011106
67812ec1514dba6089ed9445,Trà Sữa Xiên Que Hot & Cold - Nguyễn Duy Trinh,Món Việt,"663 Nguyễn Duy Trinh, P. Bình Trưng Đông, Tp. Thủ Đức, TP. HCM",20.000đ - 55.000đ,09:00 - 22:00,7.551538461538461,Positive,10.789636437874076,106.77967799832437
67812ec1514dba6089ed914a,"Chiến Gà - Phở, Cháo & Miến Gà",Món Việt,"7E Ngách 39 Ngõ 154 Ngọc Lâm, Quận Long Biên, Hà Nội",20.000đ - 60.000đ,16:00 - 23:00,7.54,Positive,,
67812ec1514dba6089ed9412,Vịt Quay 2 Chị Em - Nguyễn Công Trứ,Món Trung Hoa,"257 Nguyễn Công Trứ, Quận 1, TP. HCM",50.000đ - 220.000đ,14:30 - 20:30,7.532556561085973,Positive,10.769797604737501,106.70341763771678
67812ec1514dba6089ed941e,Đông Nam Phát Mì Gia - Đinh Thị Thi,empty,"20A Đinh Thị Thi, P. Hiệp Bình Phước, Tp. Thủ Đức, TP. HCM",30.000đ - 60.000đ,06:00 - 13:00 | 16:00 - 21:00,7.528461538461538,Positive,10.844609819417723,106.71611583720997
67812ec1514dba6089ed92a3,Bà Hằng - Bún Ngan & Bún Trộn,Món Việt,"Ki Ốt 3, Đối Diện Cổng Chợ Nghĩa Tân, P. Nghĩa Tân, Quận Cầu Giấy, Hà Nội",30.000đ - 35.000đ,09:00 - 23:00,7.52,Positive,,
67812ec1514dba6089ed924e,Trạm Sushi - Trấn Vũ,Món Nhật,"90 Trấn Vũ, P. Trúc Bạch, Quận Ba Đình, Hà Nội",8.000đ - 20.000đ,09:00 - 14:30 | 16:00 - 21:30,7.52,Positive,21.043583428034758,105.8414183919364
67812ec1514dba6089ed92d7,Mì Vịt Tiềm Thượng Hải 481,Món Việt,"481/1 Nguyễn Tri Phương, P. 8, Quận 10, TP. HCM",35.000đ - 40.000đ,15:00 - 22:00,7.515961538461538,Positive,10.76093547574519,106.6685830279793
67812ec1514dba6089ed93a8,Quán Nem Chợ Huyện - Đặc Sản Bình Định - Bạch Đằng,Bình Định,"100A Bạch Đằng, P. 2, Quận Tân Bình, TP. HCM",15.000đ - 145.000đ,10:00 - 22:30,7.508269230769232,Positive,10.814301635007537,106.66586935543724
67812ec1514dba6089ed93af,Su Bin - Cháo Ếch Singapore - Dương Bá Trạc,Singapore,"109/9 Dương Bá Trạc, P. 1, Quận 8, TP. HCM",10.000đ - 60.000đ,17:00 - 00:00,7.506153846153845,Positive,10.744351058258712,106.68894974870116
67812ec1514dba6089ed90f1,Trà Sữa Feeling Tea - Hai Bà Trưng,Đài Loan,"53C Hai Bà Trưng, P. Trần Hưng Đạo, Quận Hoàn Kiếm, Hà Nội",20.000đ - 40.000đ,07:00 - 23:00,7.5,Positive,21.02552498780716,105.84855380004187
67812ec1514dba6089ed9142,Bánh Gà Bá Gành - Lương Định Của,Món Việt,"28B Lương Định Của (Đối Diện Ngõ 27 Lương Định Của), Quận Đống Đa, Hà Nội",30.000đ - 50.000đ,10:00 - 19:00,7.5,Positive,,
67812ec1514dba6089ed922d,Thu Nga - Kem Xôi & Chè Thái,Món Việt,"8 Hai Bà Trưng, P. Tràng Tiền, Quận Hoàn Kiếm, Hà Nội",25.000đ - 50.000đ,09:00 - 23:00,7.5,Positive,21.02370225,105.85601950739598
67812ec1514dba6089ed9103,Trâu Giật Kinh Bắc,Món Việt,"69 Đường 19-5, P. Văn Quán, Quận Hà Đông, Hà Nội",50.000đ - 300.000đ,08:00 - 23:00,7.5,Positive,,
67812ec1514dba6089ed9301,Cơm Tấm Sài Gòn - Quốc Lộ 13,Miền Đông,"392 Quốc Lộ 13, Thành Phố Thủ Dầu Một, Bình Dương",18.000đ - 28.000đ,Cả ngày | 07:00 - 21:00,7.486538461538461,Positive,,
67812ec1514dba6089ed9223,Azumaya 東屋 - Ẩm Thực Nhật Bản,Món Nhật,"16 Bùi Thị Xuân, P. Bùi Thị Xuân, Quận Hai Bà Trưng, Hà Nội",50.000đ - 150.000đ,06:30 - 14:00,7.48,Positive,,
67812ec1514dba6089ed944d,Đặc Sản Xứ Quảng - Mì Quảng & Bún Mắm,Món Miền Trung,"103/19 Nguyễn Trường Tộ, P. Vĩnh Ninh, Tp. Huế, Huế",7.000đ - 25.000đ,06:00 - 21:00,7.48,Positive,16.4559069,107.5866292
67812ec1514dba6089ed93c8,Hủ Tiếu Bò Viên 1122,Món Việt,"1000 Trường Sa , P. 12, Quận 3, TP. HCM",30.000đ - 40.000đ,16:00 - 22:00,7.466479289940828,Positive,10.78505690184129,106.68046404077738
67812ec1514dba6089ed921e,Bún Riêu Bề Bề - Cốm Vòng,Món Việt,"A19 Cốm Vòng (Đối Diện 10 Cốm Vòng), P. Dịch Vọng Hậu, Quận Cầu Giấy, Hà Nội",25.000đ - 150.000đ,06:00 - 14:30,7.46,Positive,,
67812ec1514dba6089ed91c4,Bún Bò Trộn Nam Bộ - Đường Láng,Món Việt,"61 Đường Láng, Quận Đống Đa, Hà Nội",35.000đ - 50.000đ,14:00 - 23:00,7.46,Positive,21.006476912074966,105.81626867867226
67812ec1514dba6089ed9283,Coffee House - Lê Văn Hưu,Món Việt,"4 Lê Văn Hưu, Quận Hoàn Kiếm, Hà Nội",15.000đ - 35.000đ,08:00 - 22:00,7.46,Positive,21.017938753638166,105.85400119705888
67812ec1514dba6089ed90f7,Delica Hans - Lotte Hotels & Resorts Hanoi - Lotte Center,Quốc tế,"Tầng Hầm 1, Tấng Hầm B1, Lotte Center, 54 Liễu Giai, Quận Ba Đình, Hà Nội",30.000đ - 250.000đ,08:00 - 22:00,7.46,Positive,,
67812ec1514dba6089ed91d6,TukTuk Thai Bistro - Triệu Việt Vương,Món Thái,"31 Triệu Việt Vương, P. Nguyễn Du, Quận Hai Bà Trưng, Hà Nội",100.000đ - 500.000đ,10:00 - 22:30,7.46,Positive,21.014366104161848,105.85044009919746
67812ec1514dba6089ed9362,Hokkaido Baked Cheese Tart - Phan Xích Long,Món Việt,"256 Phan Xích Long, P. 7, Quận Phú Nhuận, TP. HCM",39.000đ - 210.000đ,09:00 - 23:00,7.451568047337277,Positive,10.7973252,106.6912979
67812ec1514dba6089ed92be,Trà Sữa Maycha - Nguyễn Văn Nghi,Món Việt,"41 Nguyễn Văn Nghi, P. 4, Quận Gò Vấp, TP. HCM",12.000đ - 34.000đ,08:00 - 22:30,7.446346153846154,Positive,10.8233327,106.68796265
67812ec1514dba6089ed9419,Bánh Đúc Cô Phụng - Bánh Đúc - Phan Tây Hồ,Món Miền Nam,"28/20 Phan Tây Hồ, P. 7, Quận Phú Nhuận, TP. HCM",Đang cập nhật,07:00 - 18:00,7.442307692307692,Positive,10.802037377951795,106.68709699475892
67812ec1514dba6089ed91bc,Bà Thìn - Xôi Chè & Bánh Trôi - Bát Đàn,Món Việt,"1 Bát Đàn, Quận Hoàn Kiếm, Hà Nội",15.000đ - 25.000đ,07:30 - 23:00,7.44,Positive,21.0338512,105.8478803
67812ec1514dba6089ed9138,Vũ Thu Hằng - Mì Trộn Indomie & Đồ Ăn Vặt Online,Món Hàn,"9 Ngách 103B Ngõ Ga Hà Đông (Cuối Ngõ Rẽ Phải), P. Phú Lương, Quận Hà Đông, Hà Nội",25.000đ - 150.000đ,08:00 - 19:00,7.44,Positive,,
67812ec1514dba6089ed9187,Lee Hai Tea - Trà Sữa & Ăn Vặt - Lương Thế Vinh,Món Á,"107 Lương Thế Vinh, P. Thanh Xuân Bắc, Quận Thanh Xuân, Hà Nội",13.000đ - 25.000đ,09:00 - 23:00,7.44,Positive,20.991503760263132,105.79606372758626
67812ec1514dba6089ed916c,Bánh Mì P - Hàng Buồm,Món Việt,"12 Hàng Buồm, Quận Hoàn Kiếm, Hà Nội",15.000đ - 35.000đ,07:00 - 18:00,7.42,Positive,21.035662,105.8523329
67812ec1514dba6089ed927a,Phở Thật,Hà Nội,"48 Trần Nhật Duật, P. Đồng Xuân, Quận Hoàn Kiếm, Hà Nội",25.000đ - 50.000đ,17:00 - 05:00,7.42,Positive,21.0380367,105.8522189
67812ec1514dba6089ed92c8,Bánh Mì One One - Xuân La,Hà Nội,"36 Xuân La, P. Xuân La, Quận Tây Hồ, Hà Nội",10.000đ - 30.000đ,06:00 - 21:30,7.413461538461538,Positive,21.06729782456068,105.8052110828342
67812ec1514dba6089ed91ae,Bánh Xèo Hương Phượng - Quan Nhân,Món Việt,"227 Quan Nhân, P. Nhân Chính, Quận Thanh Xuân, Hà Nội",15.000đ - 50.000đ,15:00 - 22:30,7.4,Positive,21.000166658132336,105.80998354965689
67812ec1514dba6089ed9119,Nem Lụi & Bánh Xèo - Nguyễn Khuyến,Món Quảng,"61 Nguyễn Khuyến, P. Văn Miếu, Quận Đống Đa, Hà Nội",5.000đ - 15.000đ,11:30 - 19:00,7.4,Positive,21.028482003466042,105.83781202600076
67812ec1514dba6089ed9115,Pizza Hut - Xã Đàn,Quốc tế,"159 Xã Đàn, P. Nam Đồng, Quận Đống Đa, Hà Nội",50.000đ - 300.000đ,10:00 - 22:00,7.4,Positive,21.01459925,105.83139340794827
67812ec1514dba6089ed91d4,Pizza Hut - The Manor,Món Âu,"Shop A003 The Manor Mễ Trì, P. Mễ Trì, Quận Nam Từ Liêm, Hà Nội",60.000đ - 220.000đ,10:00 - 22:00,7.4,Positive,,
67812ec1514dba6089ed91f5,Lan Trê - Bánh Đa Cua - Tân Ấp,Món Việt,"85 Ngõ 75 Tân Ấp, P. Phúc Xá, Quận Ba Đình, Hà Nội",20.000đ - 35.000đ,06:00 - 14:30,7.4,Positive,21.0470271,105.8470419
67812ec1514dba6089ed9330,Cẩm Ký - Cơm Gà Xối Mỡ,Món Việt,"37 Đề Thám, P. Tân An, Quận Ninh Kiều, Cần Thơ",50.000đ - 220.000đ,08:30 - 21:30,7.393653846153846,Positive,,
67812ec1514dba6089ed92ed,The FM$ - Trà Sữa & Sữa Tươi - 95 Ba Cu,Món Việt,"95 Ba Cu, P. 4, Tp. Vũng Tàu, Vũng Tàu",10.000đ - 20.000đ,09:00 - 20:00,7.388671328671328,Positive,10.353816887394355,107.0816828564105
67812ec1514dba6089ed9359,Starbucks Coffee - Cách Mạng Tháng 8,Mỹ,"241Bis Cách Mạng Tháng 8, P. 4, Quận 3, TP. HCM",40.000đ - 110.000đ,07:00 - 23:00,7.388076923076923,Positive,10.775961626613553,106.68501723817698
67812ec1514dba6089ed92c6,Bánh Mì Phố - Hàng Bài,Món Việt,"39A Hàng Bài, P. Hàng Bài, Quận Hoàn Kiếm, Hà Nội",25.000đ - 50.000đ,06:30 - 23:00,7.386346153846153,Positive,,
67812ec1514dba6089ed9329,Mỳ cay Itada - Nguyễn Văn Cừ,Món Hàn,"287 Nguyễn Văn Cừ, P. An Hòa, Quận Ninh Kiều, Cần Thơ",20.000đ - 50.000đ,08:00 - 23:00,7.382348901098901,Positive,10.048990495150198,105.7708016993281
67812ec1514dba6089ed91b2,Văn Miếu - Cà Phê & Nước Ép Trái Cây,Món Việt,"59C Quốc Tử Giám, P. Văn Chương, Quận Đống Đa, Hà Nội",15.000đ - 50.000đ,08:00 - 22:00,7.38,Positive,21.02611235,105.8378433
67812ec1514dba6089ed91db,Domino's Pizza - AEON Mall Long Biên,Mỹ,"27 Cổ Linh, Quận Long Biên, Hà Nội",49.000đ - 199.000đ,10:00 - 22:00,7.38,Positive,21.02712305,105.89995856946659
67812ec1514dba6089ed9116,Sushidokoro Yutaka - Ẩm Thực Nhật Bản,Món Nhật,"95 Xuân Diệu, P. Quảng An, Quận Tây Hồ, Hà Nội",100.000đ - 275.000đ,11:00 - 14:00 | 17:00 - 22:30,7.38,Positive,21.065749537034673,105.82713972469351
67812ec1514dba6089ed90f5,Bánh Đúc Nóng - Trung Tự,Hà Nội,"103 B5 Trung Tự (Ngõ 46C Phạm Ngọc Thạch), Quận Đống Đa, Hà Nội",15.000đ - 33.000đ,15:00 - 19:00,7.36,Positive,,
67812ec1514dba6089ed90e9,Bếp Nhà Vịt - Đồ Ăn Hàn Quốc,Món Hàn,"5 Ngõ 140/30/6 Đông Thiên, P. Vĩnh Hưng, Quận Hoàng Mai, Hà Nội",25.000đ - 60.000đ,10:00 - 17:00,7.36,Positive,,
67812ec1514dba6089ed92bf,Mầm Xanh - Ẩm Thực Chay,Món Việt,"46 Nguyễn Gia Trí, P. 25, Quận Bình Thạnh, TP. HCM",20.000đ - 30.000đ,07:00 - 15:00 | 16:00 - 21:00,7.36,Positive,10.808241505773166,106.71654915482831
67812ec1514dba6089ed93da,Min’s Estate - Bánh Bông Lan Đài Loan Le Castella,Món Việt,"151A Bạch Đằng, P. 2, Quận Tân Bình, TP. HCM",39.000đ - 149.000đ,08:30 - 21:00,7.352692307692308,Positive,10.81791305,106.6740004
67812ec1514dba6089ed91fc,Koh Yam - Thai Kitchen & Dessert - Giảng Võ,Món Thái,"122K1 Giảng Võ, Quận Đống Đa, Hà Nội",30.000đ - 150.000đ,09:00 - 22:30,7.34,Positive,21.030585371586927,105.8287316508725
67812ec1514dba6089ed91e5,Bếp Nhà Bun - Chân Gà Sả Ớt Online - Trường Chinh,Món Việt,"20 Ngõ 592 Trường Chinh, P. Khương Thượng, Quận Đống Đa, Hà Nội",90.000đ - 90.000đ,09:00 - 23:00,7.34,Positive,21.003457820085913,105.82248143190286
67812ec1514dba6089ed9248,"Al Fresco's - Pizza, Mỳ Ý, Sườn, Steak Bò Bít Tết - Vincom Center",Ý,"4th Floor, 402 Vincom Center, Quận Long Biên, Hà Nội",150.000đ - 330.000đ,10:00 - 22:00,7.34,Positive,,
67812ec1514dba6089ed92ea,Hotpot Story - Lotte Mart Vũng Tàu,Món Á,"Tầng 1 TTTM Lotte Mart Vũng Tàu, Đường 3 Tháng 2, P. 8, Tp. Vũng Tàu, Vũng Tàu",149.000đ - 319.000đ,10:00 - 22:00,7.336648351648352,Positive,,
67812ec1514dba6089ed93a9,Quán Của Má - Nem Nướng & Đặc Sản Nha Trang - Nguyễn Thị Nhỏ,Nha Trang,"61 Nguyễn Thị Nhỏ, P. 9, Quận Tân Bình, TP. HCM",30.000đ - 45.000đ,10:00 - 20:00,7.336071428571428,Positive,10.770549797641959,106.65264884346782
67812ec1514dba6089ed934d,Hoàng Hiếu - Các Món Gà,Món Việt,"222/3 Lâm Văn Bền, P. Tân Quy, Quận 7, TP. HCM",60.000đ - 330.000đ,10:00 - 23:00,7.33173076923077,Positive,10.741414446735895,106.71588958130602
67812ec1514dba6089ed93f5,Cơm Truyền Ký 2 - Trần Phú,Món Trung Hoa,"257A Trần Phú, P. 8, Quận 5, TP. HCM",30.000đ - 110.000đ,10:00 - 22:00,7.33,Positive,,
67812ec1514dba6089ed93c2,Vina Chuối - Huỳnh Thúc Kháng,Món Việt,"25 Huỳnh Thúc Kháng, P. Bến Nghé, Quận 1, TP. HCM",8.000đ - 8.000đ,09:00 - 20:00,7.327307692307691,Positive,10.772777431243362,106.70251886799171
67812ec1514dba6089ed93b3,KOI Thé - Nguyễn Tri Phương,Singapore,"266 Nguyễn Tri Phương, Quận 10, TP. HCM",30.000đ - 70.000đ,09:00 - 22:00,7.325769230769231,Positive,10.764776842385382,106.66782930411176
67812ec1514dba6089ed91d1,Trà Sữa Feeling Tea - Tân Mai,Đài Loan,"128 Tân Mai, P. Tân Mai, Quận Hoàng Mai, Hà Nội",12.000đ - 30.000đ,07:00 - 23:00,7.32,Positive,20.983698851410136,105.851165650795
67812ec1514dba6089ed91a1,Xôi Sắn - Ngô Sĩ Liên,Món Việt,"40 Ngô Sĩ Liên, P. Văn Miếu , Quận Đống Đa, Hà Nội",10.000đ - 25.000đ,15:00 - 18:00,7.32,Positive,21.027549802626748,105.83959639544007
67812ec1514dba6089ed91e1,Lẩu Phan - Buffet Bò Úc - Láng Hạ,Món Việt,"16 Ngõ 59 Láng Hạ, Quận Đống Đa, Hà Nội",100.000đ - 150.000đ,10:00 - 22:00,7.32,Positive,21.024497207482046,105.81117793225873
67812ec1514dba6089ed9337,Bún Mắm & Lẩu Mắm 444 - Đường B5,empty,"Đường B5, KDC Phú Thịnh, P. Long Bình Tân, Thành Phố Biên Hòa, Đồng Nai",45.000đ - 150.000đ,07:00 - 23:00,7.3076923076923075,Positive,,
67812ec1514dba6089ed9341,"Hàu Nướng Tý Nguyễn - Trạm xăng dầu Cầu Mới, Tín Nghĩa Petroleum",empty,"Kế Bên Trạm Xăng dầu Cầu Mới ( Xe Bán Hàng Dán Màu Vàng, Xanh ), Tín Nghĩa Petroleum, Nguyễn Văn Trị, P. Hoà Bình, Thành Phố Biên Hòa, Đồng Nai",Đang cập nhật,15:00 - 23:00,7.3076923076923075,Positive,,
67812ec1514dba6089ed929b,Khoai Nướng & Ngô Luộc - Trần Bình,Món Việt,"9 Trần Bình, Quận Cầu Giấy, Hà Nội",5.000đ - 50.000đ,13:00 - 21:00,7.3,Positive,21.033225199999997,105.77780446392126
67812ec1514dba6089ed9450,Bún Bò Huế - Nguyễn Sinh Cung,Món Huế,"250 Nguyễn Sinh Cung, Tp. Huế, Huế",25.000đ - 30.000đ,06:30 - 21:00,7.3,Positive,16.483953093243894,107.5958826835451
67812ec1514dba6089ed926a,YakiSaki - Vietnam Izakaya,Món Nhật,"4 Xóm Hạ Hồi, P. Trần Hưng Đạo, Quận Hoàn Kiếm, Hà Nội",50.000đ - 200.000đ,10:00 - 23:59,7.3,Positive,21.021406756100912,105.84718847942435
67812ec1514dba6089ed943f,Chín - Bún Bò & Bún Thịt Nướng,Món Việt,"280 Nguyễn Sơn, Quận Tân Phú, TP. HCM",30.000đ - 45.000đ,07:00 - 11:00 | 16:00 - 20:00,7.285,Positive,10.783423337008445,106.6249012693497
67812ec1514dba6089ed9399,Starbucks Coffee - Emart,"Mỹ, Món Âu","Emart, 366 Phan Văn Trị, P. 5, Quận Gò Vấp, TP. HCM",35.000đ - 100.000đ,08:00 - 22:04,7.281730769230769,Positive,10.8235839,106.6933156
67812ec1514dba6089ed92c3,Phở 25 - Chi Nhánh Bình Tân,Món Việt,"40 - 41A Đường Số 4, P. Bình Trị Đông B, Quận Bình Tân, TP. HCM",10.000đ - 50.000đ,06:00 - 20:00,7.28,Positive,10.739335,106.6050922
67812ec1514dba6089ed91cb,Cháo Trai - Trần Xuân Soạn,Món Việt,"26 Trần Xuân Soạn, Quận Hai Bà Trưng, Hà Nội",15.000đ - 28.000đ,11:00 - 13:00 | 15:00 - 20:30,7.28,Positive,21.0171688,105.8550764
67812ec1514dba6089ed91b7,Chicken Bros - Quán Gà Rán Hàn Quốc,Món Hàn,"552 Minh Khai, Quận Hai Bà Trưng, Hà Nội",80.000đ - 270.000đ,09:00 - 23:00,7.28,Positive,20.9962306,105.857312
67812ec1514dba6089ed9217,Maru Korean - Tiệm Đồ Ăn Hàn Quốc & Trà Sữa - Trần Đại Nghĩa,empty,"133 Trần Đại Nghĩa, P. Bách Khoa, Quận Hai Bà Trưng, Hà Nội",20.000đ - 50.000đ,10:00 - 21:35,7.28,Positive,21.0020804,105.8450371
